{
  "vaDependentsNetWorthAndPension": false,
  "view:householdIncome": true,
  "householdIncome": false,
  "view:childrenToAddMissingInformation": {},
  "view:completedAddChild": false,
  "view:veteranMarriageHistoryMissingInformation": {},
  "view:completedVeteranFormerMarriage": false,
  "view:spouseMarriageHistoryMissingInformation": {},
  "view:completedSpouseFormerMarriage": false,
  "currentMarriageInformation": {
    "typeOfMarriage": "OTHER",
    "typeOther": "Married by the Captain of the Black Pearl",
    "view:marriageTypeInformation": {},
    "outsideUsa": true,
    "location": {
      "city": "Fakesville",
      "country": "AUS"
    },
    "date": "2025-01-19"
  },
  "doesLiveWithSpouse": {
    "spouseIncome": "Y",
    "currentSpouseReasonForSeparation": "OTHER",
    "other": "Work and property management reasons",
    "address": {
      "view:militaryBaseDescription": {},
      "country": "USA",
      "street": "123 Fake St.",
      "street2": "Street 2",
      "street3": "Street 3",
      "city": "Fakesville",
      "state": "AL",
      "postalCode": "12345"
    },
    "spouseDoesLiveWithVeteran": false
  },
  "spouseInformation": {
    "ssn": "333445555",
    "birthDate": "1979-02-19",
    "isVeteran": false,
    "fullName": {
      "first": "John",
      "middle": "H",
      "last": "Doe"
    }
  },
  "view:cancelAddSpouse": {},
  "veteranInformation": {
      "fullName": {
        "first": "Pauline",
        "middle": "E",
        "last": "Foster"
      },
      "ssn": "796330625",
      "birthDate": "1976-06-09",
      "ssnLastFour": "0625",
      "vaFileLastFour": "0625",
      "isInReceiptOfPension": -1
    },
  "veteranContactInformation": {
    "phoneNumber": "8008885555",
    "internationalPhoneNumber": "18008885555",
    "emailAddress": "nope@nope.com",
    "electronicCorrespondence": false,
    "veteranAddress": {
      "view:militaryBaseDescription": {},
      "country": "USA",
      "street": "123 Fake St.",
      "city": "Fakesville",
      "state": "AL",
      "postalCode": "12345"
    }
  },
  "view:addDependentOptions": {
    "addSpouse": true,
    "addChild": true
  },
  "view:addDependentOptionsDescription": {},
  "view:addOrRemoveDependents": {
    "add": true
  },
  "useV2": true,
  "view:removeDependentOptions": {},
  "spouseMarriageHistory": [
    {
      "endLocation": {
        "location": {
          "city": "Fakesville",
          "state": "GA"
        }
      },
      "startLocation": {
        "location": {
          "city": "Fakesville",
          "state": "CT"
        }
      },
      "endDate": "2007-07-19",
      "startDate": "2005-04-19",
      "reasonMarriageEnded": "Divorce",
      "fullName": {
        "first": "John-Name",
        "middle": "J",
        "last": "Doe"
      }
    }
  ],
  "veteranMarriageHistory": [
    {
      "endLocation": {
        "location": {
          "city": "North Las Vegas",
          "state": "NV"
        }
      },
      "startLocation": {
        "location": {
          "city": "Fakesville",
          "state": "AZ"
        }
      },
      "endDate": "2007-04-19",
      "startDate": "2000-03-19",
      "reasonMarriageEnded": "Divorce",
      "fullName": {
        "first": "Sally",
        "middle": "Mae",
        "last": "Doe"
      }
    }
  ],
  "childrenToAdd": [
    {
      "livingWith": {
        "first": "John",
        "middle": "G",
        "last": "Doe"
      },
      "address": {
        "view:militaryBaseDescription": {},
        "country": "USA",
        "street": "123 Fake St.",
        "city": "Fakesville",
        "state": "MO",
        "postalCode": "12345"
      },
      "incomeInLastYear": "N",
      "marriageEndDate": "2025-02-18",
      "marriageEndReason": "Other",
      "marriageEndDescription": "Other way",
      "doesChildLiveWithYou": false,
      "hasChildEverBeenMarried": true,
      "doesChildHavePermanentDisability": true,
      "view:disabilityInfo": {},
      "doesChildHaveDisability": true,
      "isBiologicalChildOfSpouse": false,
      "dateEnteredHousehold": "2023-04-19",
      "view:biologicalParentInfo": {},
      "biologicalParentName": {
        "first": "John",
        "last": "Doe"
      },
      "biologicalParentSsn": "333445555",
      "biologicalParentDob": "1991-09-19",
      "relationshipType": "STEPCHILD",
      "relationshipToChild": {
        "stepchild": true
      },
      "view:commonEvidenceInfo": {},
      "view:stepchildAdditionalEvidenceDescription": {},
      "isBiologicalChild": false,
      "birthLocation": {
        "location": {
          "city": "Fakesville",
          "state": "ID",
          "postalCode": "12345"
        }
      },
      "ssn": "333445555",
      "fullName": {
        "first": "Child",
        "middle": "M",
        "last": "Doe"
      },
      "birthDate": "2012-04-19"
    }
  ],

  "spouseSupportingDocuments": [
      {
        "name": "Screenshot from 2025-04-23 13-28-43.png",
        "confirmationCode": "0a6fc362-f125-4796-84c9-c13435363329",
        "attachmentId": "",
        "isEncrypted": false
      },
      {
        "name": "Screenshot from 2025-04-23 13-28-59.png",
        "confirmationCode": "9a267bd7-f459-47e5-903e-baab21953ffd",
        "attachmentId": "",
        "isEncrypted": false
      }
    ],

    "childSupportingDocuments": [
      {
        "name": "Screenshot from 2025-04-21 12-47-33.png",
        "confirmationCode": "e13a641a-23e0-4e08-aa0f-bfc1b3e61519",
        "attachmentId": "",
        "isEncrypted": false
      }
    ],

  "view:additionalEvidenceDescription": {},
  "view:selectable686Options": {
    "addSpouse": true,
    "addChild": true
  },
  "statementOfTruthSignature": "Pauline E Foster",
  "statementOfTruthCertified": true
}
