[
  {
    "attributes": {
      "long": "42.624774",
      "lat": "55.1362",
      "services": [
        [
          "DentalServices",
          [

          ]
        ],
        [
          "EyeCare",
          [

          ]
        ],
        [
          "MentalHealthCare",
          [
            "OutpatientMHCare",
            "OutpatientSpecMHCare",
            "VocationalAssistance"
          ]
        ],
        [
          "PrimaryCare",
          [

          ]
        ]
      ],
      "hours": {
        "sunday": "-",
        "saturday": "800AM-1000AM",
        "friday": "730AM-430PM",
        "thursday": "730AM-430PM",
        "wednesday": "730AM-430PM",
        "tuesday": "730AM-630PM",
        "monday": "730AM-430PM"
      },
      "phone": {
        "afterHours": "(899) 576-2060",
        "fax": "(817) 414-2189",
        "main": "(851) 492-3093"
      },
      "address": {
        "zip4": 8153,
        "zip": 1550,
        "state": "MN",
        "city": "Matheny",
        "suite": null,
        "street": "760 Saratoga Avenue",
        "building": null
      },
      "classification": " VA Medical Center",
      "state": "MN",
      "city": "Matheny",
      "name": "MN VA Medical Center-Matheny",
      "visnId": 934
    },
    "state": "MN",
    "city": "Matheny",
    "type": "va_health_facility",
    "id": 680
  },
  {
    "attributes": {
      "long": "-60.178511",
      "lat": "55.792619",
      "services": [
        [
          "DentalServices",
          [

          ]
        ],
        [
          "EyeCare",
          [

          ]
        ],
        [
          "MentalHealthCare",
          [
            "OutpatientMHCare",
            "OutpatientSpecMHCare",
            "VocationalAssistance"
          ]
        ],
        [
          "PrimaryCare",
          [

          ]
        ]
      ],
      "hours": {
        "sunday": "-",
        "saturday": "800AM-1000AM",
        "friday": "730AM-430PM",
        "thursday": "730AM-430PM",
        "wednesday": "730AM-430PM",
        "tuesday": "730AM-630PM",
        "monday": "730AM-430PM"
      },
      "phone": {
        "afterHours": "(941) 406-2602",
        "fax": "(943) 578-3571",
        "main": "(935) 587-3878"
      },
      "address": {
        "zip4": 6918,
        "zip": 1645,
        "state": "NH",
        "city": "Brownsville",
        "suite": null,
        "street": "963 Durland Place",
        "building": null
      },
      "classification": " VA Medical Center",
      "state": "NH",
      "city": "Brownsville",
      "name": "NH VA Medical Center-Brownsville",
      "visnId": 949
    },
    "state": "NH",
    "city": "Brownsville",
    "type": "va_health_facility",
    "id": 207
  },
  {
    "attributes": {
      "long": "55.912308",
      "lat": "-68.490456",
      "services": [
        [
          "DentalServices",
          [

          ]
        ],
        [
          "EyeCare",
          [

          ]
        ],
        [
          "MentalHealthCare",
          [
            "OutpatientMHCare",
            "OutpatientSpecMHCare",
            "VocationalAssistance"
          ]
        ],
        [
          "PrimaryCare",
          [

          ]
        ]
      ],
      "hours": {
        "sunday": "-",
        "saturday": "800AM-1000AM",
        "friday": "730AM-430PM",
        "thursday": "730AM-430PM",
        "wednesday": "730AM-430PM",
        "tuesday": "730AM-630PM",
        "monday": "730AM-430PM"
      },
      "phone": {
        "afterHours": "(980) 529-3332",
        "fax": "(898) 593-3030",
        "main": "(878) 500-3928"
      },
      "address": {
        "zip4": 3730,
        "zip": 2790,
        "state": "MO",
        "city": "Harold",
        "suite": null,
        "street": "215 College Place",
        "building": null
      },
      "classification": " VA Medical Center",
      "state": "MO",
      "city": "Harold",
      "name": "MO VA Medical Center-Harold",
      "visnId": 448
    },
    "state": "MO",
    "city": "Harold",
    "type": "va_health_facility",
    "id": 938
  },
  {
    "attributes": {
      "long": "76.544308",
      "lat": "58.878487",
      "services": null,
      "hours": {
        "sunday": "-",
        "saturday": "800AM-1000AM",
        "friday": "730AM-430PM",
        "thursday": "730AM-430PM",
        "wednesday": "730AM-430PM",
        "tuesday": "730AM-630PM",
        "monday": "730AM-430PM"
      },
      "phone": {
        "afterHours": "(878) 565-2471",
        "fax": "(831) 441-2789",
        "main": "(831) 523-2056"
      },
      "address": {
        "zip4": 5878,
        "zip": 3442,
        "state": "RI",
        "city": "Graball",
        "suite": null,
        "street": "492 Nautilus Avenue",
        "building": null
      },
      "classification": " VA Cemetery",
      "state": "RI",
      "city": "Graball",
      "name": "RI VA Cemetery-Graball",
      "visnId": 178
    },
    "state": "RI",
    "city": "Graball",
    "type": "va_cemetery",
    "id": 138
  },
  {
    "attributes": {
      "long": "70.955666",
      "lat": "-78.457155",
      "services": null,
      "hours": {
        "sunday": "-",
        "saturday": "800AM-1000AM",
        "friday": "730AM-430PM",
        "thursday": "730AM-430PM",
        "wednesday": "730AM-430PM",
        "tuesday": "730AM-630PM",
        "monday": "730AM-430PM"
      },
      "phone": {
        "afterHours": "(920) 413-2568",
        "fax": "(882) 513-2906",
        "main": "(933) 403-3416"
      },
      "address": {
        "zip4": 8002,
        "zip": 1144,
        "state": "TX",
        "city": "Grandview",
        "suite": null,
        "street": "455 Willow Place",
        "building": null
      },
      "classification": " VA Benfits Office",
      "state": "TX",
      "city": "Grandview",
      "name": "TX VA Benfits Office-Grandview",
      "visnId": 276
    },
    "state": "TX",
    "city": "Grandview",
    "type": "va_benefits_facility",
    "id": 875
  },
  {
    "attributes": {
      "long": "-98.993452",
      "lat": "-34.82664",
      "services": null,
      "hours": {
        "sunday": "-",
        "saturday": "800AM-1000AM",
        "friday": "730AM-430PM",
        "thursday": "730AM-430PM",
        "wednesday": "730AM-430PM",
        "tuesday": "730AM-630PM",
        "monday": "730AM-430PM"
      },
      "phone": {
        "afterHours": "(936) 546-3517",
        "fax": "(929) 556-3273",
        "main": "(898) 545-2288"
      },
      "address": {
        "zip4": 2982,
        "zip": 4665,
        "state": "MT",
        "city": "Dalton",
        "suite": null,
        "street": "617 Conduit Boulevard",
        "building": null
      },
      "classification": " VA Cemetery",
      "state": "MT",
      "city": "Dalton",
      "name": "MT VA Cemetery-Dalton",
      "visnId": 558
    },
    "state": "MT",
    "city": "Dalton",
    "type": "va_cemetery",
    "id": 177
  },
  {
    "attributes": {
      "long": "-9.030443",
      "lat": "-71.350662",
      "services": null,
      "hours": {
        "sunday": "-",
        "saturday": "800AM-1000AM",
        "friday": "730AM-430PM",
        "thursday": "730AM-430PM",
        "wednesday": "730AM-430PM",
        "tuesday": "730AM-630PM",
        "monday": "730AM-430PM"
      },
      "phone": {
        "afterHours": "(956) 518-3872",
        "fax": "(966) 506-3015",
        "main": "(896) 569-2777"
      },
      "address": {
        "zip4": 6575,
        "zip": 2257,
        "state": "FL",
        "city": "Templeton",
        "suite": null,
        "street": "836 Neptune Court",
        "building": null
      },
      "classification": " VA Cemetery",
      "state": "FL",
      "city": "Templeton",
      "name": "FL VA Cemetery-Templeton",
      "visnId": 312
    },
    "state": "FL",
    "city": "Templeton",
    "type": "va_cemetery",
    "id": 659
  },
  {
    "attributes": {
      "long": "-17.611584",
      "lat": "-19.395657",
      "services": null,
      "hours": {
        "sunday": "-",
        "saturday": "800AM-1000AM",
        "friday": "730AM-430PM",
        "thursday": "730AM-430PM",
        "wednesday": "730AM-430PM",
        "tuesday": "730AM-630PM",
        "monday": "730AM-430PM"
      },
      "phone": {
        "afterHours": "(868) 577-2036",
        "fax": "(880) 574-2148",
        "main": "(996) 514-3837"
      },
      "address": {
        "zip4": 4456,
        "zip": 3688,
        "state": "SC",
        "city": "Lloyd",
        "suite": null,
        "street": "141 Kane Place",
        "building": null
      },
      "classification": " VA Benfits Office",
      "state": "SC",
      "city": "Lloyd",
      "name": "SC VA Benfits Office-Lloyd",
      "visnId": 597
    },
    "state": "SC",
    "city": "Lloyd",
    "type": "va_benefits_facility",
    "id": 228
  },
  {
    "attributes": {
      "long": "120.471185",
      "lat": "18.748535",
      "services": null,
      "hours": {
        "sunday": "-",
        "saturday": "800AM-1000AM",
        "friday": "730AM-430PM",
        "thursday": "730AM-430PM",
        "wednesday": "730AM-430PM",
        "tuesday": "730AM-630PM",
        "monday": "730AM-430PM"
      },
      "phone": {
        "afterHours": "(871) 456-2595",
        "fax": "(813) 589-3974",
        "main": "(894) 520-3808"
      },
      "address": {
        "zip4": 7956,
        "zip": 7668,
        "state": "PA",
        "city": "Stockdale",
        "suite": null,
        "street": "535 Nassau Avenue",
        "building": null
      },
      "classification": " VA Cemetery",
      "state": "PA",
      "city": "Stockdale",
      "name": "PA VA Cemetery-Stockdale",
      "visnId": 707
    },
    "state": "PA",
    "city": "Stockdale",
    "type": "va_cemetery",
    "id": 479
  },
  {
    "attributes": {
      "long": "36.577374",
      "lat": "-10.137608",
      "services": null,
      "hours": {
        "sunday": "-",
        "saturday": "800AM-1000AM",
        "friday": "730AM-430PM",
        "thursday": "730AM-430PM",
        "wednesday": "730AM-430PM",
        "tuesday": "730AM-630PM",
        "monday": "730AM-430PM"
      },
      "phone": {
        "afterHours": "(990) 595-3725",
        "fax": "(863) 528-3021",
        "main": "(898) 478-3160"
      },
      "address": {
        "zip4": 4984,
        "zip": 8780,
        "state": "AK",
        "city": "Cucumber",
        "suite": null,
        "street": "509 Juliana Place",
        "building": null
      },
      "classification": " VA Cemetery",
      "state": "AK",
      "city": "Cucumber",
      "name": "AK VA Cemetery-Cucumber",
      "visnId": 721
    },
    "state": "AK",
    "city": "Cucumber",
    "type": "va_cemetery",
    "id": 598
  },
  {
    "attributes": {
      "long": "-73.956499",
      "lat": "38.820109",
      "services": null,
      "hours": {
        "sunday": "-",
        "saturday": "800AM-1000AM",
        "friday": "730AM-430PM",
        "thursday": "730AM-430PM",
        "wednesday": "730AM-430PM",
        "tuesday": "730AM-630PM",
        "monday": "730AM-430PM"
      },
      "phone": {
        "afterHours": "(919) 531-3270",
        "fax": "(808) 548-2554",
        "main": "(935) 487-3831"
      },
      "address": {
        "zip4": 5191,
        "zip": 9363,
        "state": "OK",
        "city": "Jugtown",
        "suite": null,
        "street": "432 Fulton Street",
        "building": null
      },
      "classification": " VA Benfits Office",
      "state": "OK",
      "city": "Jugtown",
      "name": "OK VA Benfits Office-Jugtown",
      "visnId": 559
    },
    "state": "OK",
    "city": "Jugtown",
    "type": "va_benefits_facility",
    "id": 129
  },
  {
    "attributes": {
      "long": "165.044307",
      "lat": "-13.757154",
      "services": null,
      "hours": {
        "sunday": "-",
        "saturday": "800AM-1000AM",
        "friday": "730AM-430PM",
        "thursday": "730AM-430PM",
        "wednesday": "730AM-430PM",
        "tuesday": "730AM-630PM",
        "monday": "730AM-430PM"
      },
      "phone": {
        "afterHours": "(841) 480-2625",
        "fax": "(850) 591-3459",
        "main": "(916) 570-2636"
      },
      "address": {
        "zip4": 5587,
        "zip": 8045,
        "state": "VT",
        "city": "Duryea",
        "suite": null,
        "street": "708 Dekalb Avenue",
        "building": null
      },
      "classification": " VA Benfits Office",
      "state": "VT",
      "city": "Duryea",
      "name": "VT VA Benfits Office-Duryea",
      "visnId": 727
    },
    "state": "VT",
    "city": "Duryea",
    "type": "va_benefits_facility",
    "id": 653
  },
  {
    "attributes": {
      "long": "91.842149",
      "lat": "41.433095",
      "services": null,
      "hours": {
        "sunday": "-",
        "saturday": "800AM-1000AM",
        "friday": "730AM-430PM",
        "thursday": "730AM-430PM",
        "wednesday": "730AM-430PM",
        "tuesday": "730AM-630PM",
        "monday": "730AM-430PM"
      },
      "phone": {
        "afterHours": "(958) 597-3415",
        "fax": "(957) 547-2735",
        "main": "(867) 546-3019"
      },
      "address": {
        "zip4": 6790,
        "zip": 1006,
        "state": "LA",
        "city": "Beechmont",
        "suite": null,
        "street": "297 Chester Street",
        "building": null
      },
      "classification": " VA Cemetery",
      "state": "LA",
      "city": "Beechmont",
      "name": "LA VA Cemetery-Beechmont",
      "visnId": 736
    },
    "state": "LA",
    "city": "Beechmont",
    "type": "va_cemetery",
    "id": 892
  },
  {
    "attributes": {
      "long": "60.116733",
      "lat": "-10.577773",
      "services": null,
      "hours": {
        "sunday": "-",
        "saturday": "800AM-1000AM",
        "friday": "730AM-430PM",
        "thursday": "730AM-430PM",
        "wednesday": "730AM-430PM",
        "tuesday": "730AM-630PM",
        "monday": "730AM-430PM"
      },
      "phone": {
        "afterHours": "(883) 538-3409",
        "fax": "(975) 585-3785",
        "main": "(937) 520-3820"
      },
      "address": {
        "zip4": 3127,
        "zip": 3099,
        "state": "IN",
        "city": "Bluffview",
        "suite": null,
        "street": "631 Fillmore Place",
        "building": null
      },
      "classification": " VA Cemetery",
      "state": "IN",
      "city": "Bluffview",
      "name": "IN VA Cemetery-Bluffview",
      "visnId": 998
    },
    "state": "IN",
    "city": "Bluffview",
    "type": "va_cemetery",
    "id": 423
  },
  {
    "attributes": {
      "long": "13.215996",
      "lat": "-32.596162",
      "services": null,
      "hours": {
        "sunday": "-",
        "saturday": "800AM-1000AM",
        "friday": "730AM-430PM",
        "thursday": "730AM-430PM",
        "wednesday": "730AM-430PM",
        "tuesday": "730AM-630PM",
        "monday": "730AM-430PM"
      },
      "phone": {
        "afterHours": "(881) 508-2848",
        "fax": "(973) 439-2268",
        "main": "(846) 560-3817"
      },
      "address": {
        "zip4": 4841,
        "zip": 2213,
        "state": "WI",
        "city": "Bluetown",
        "suite": null,
        "street": "330 Anthony Street",
        "building": null
      },
      "classification": " VA Benfits Office",
      "state": "WI",
      "city": "Bluetown",
      "name": "WI VA Benfits Office-Bluetown",
      "visnId": 191
    },
    "state": "WI",
    "city": "Bluetown",
    "type": "va_benefits_facility",
    "id": 813
  },
  {
    "attributes": {
      "long": "-130.498027",
      "lat": "15.679878",
      "services": null,
      "hours": {
        "sunday": "-",
        "saturday": "800AM-1000AM",
        "friday": "730AM-430PM",
        "thursday": "730AM-430PM",
        "wednesday": "730AM-430PM",
        "tuesday": "730AM-630PM",
        "monday": "730AM-430PM"
      },
      "phone": {
        "afterHours": "(928) 500-2796",
        "fax": "(843) 483-3779",
        "main": "(865) 553-3243"
      },
      "address": {
        "zip4": 6265,
        "zip": 7863,
        "state": "ID",
        "city": "Welch",
        "suite": null,
        "street": "607 Elliott Place",
        "building": null
      },
      "classification": " VA Cemetery",
      "state": "ID",
      "city": "Welch",
      "name": "ID VA Cemetery-Welch",
      "visnId": 969
    },
    "state": "ID",
    "city": "Welch",
    "type": "va_cemetery",
    "id": 244
  },
  {
    "attributes": {
      "long": "63.360633",
      "lat": "-25.99405",
      "services": null,
      "hours": {
        "sunday": "-",
        "saturday": "800AM-1000AM",
        "friday": "730AM-430PM",
        "thursday": "730AM-430PM",
        "wednesday": "730AM-430PM",
        "tuesday": "730AM-630PM",
        "monday": "730AM-430PM"
      },
      "phone": {
        "afterHours": "(881) 503-3749",
        "fax": "(979) 548-3895",
        "main": "(860) 440-3613"
      },
      "address": {
        "zip4": 5471,
        "zip": 7967,
        "state": "NE",
        "city": "Ironton",
        "suite": null,
        "street": "962 Radde Place",
        "building": null
      },
      "classification": " VA Cemetery",
      "state": "NE",
      "city": "Ironton",
      "name": "NE VA Cemetery-Ironton",
      "visnId": 942
    },
    "state": "NE",
    "city": "Ironton",
    "type": "va_cemetery",
    "id": 462
  },
  {
    "attributes": {
      "long": "-138.369439",
      "lat": "18.355882",
      "services": null,
      "hours": {
        "sunday": "-",
        "saturday": "800AM-1000AM",
        "friday": "730AM-430PM",
        "thursday": "730AM-430PM",
        "wednesday": "730AM-430PM",
        "tuesday": "730AM-630PM",
        "monday": "730AM-430PM"
      },
      "phone": {
        "afterHours": "(853) 484-3692",
        "fax": "(956) 477-3400",
        "main": "(826) 563-3308"
      },
      "address": {
        "zip4": 4509,
        "zip": 8254,
        "state": "OR",
        "city": "Castleton",
        "suite": null,
        "street": "879 Richardson Street",
        "building": null
      },
      "classification": " VA Benfits Office",
      "state": "OR",
      "city": "Castleton",
      "name": "OR VA Benfits Office-Castleton",
      "visnId": 489
    },
    "state": "OR",
    "city": "Castleton",
    "type": "va_benefits_facility",
    "id": 598
  },
  {
    "attributes": {
      "long": "-10.007453",
      "lat": "-47.203434",
      "services": null,
      "hours": {
        "sunday": "-",
        "saturday": "800AM-1000AM",
        "friday": "730AM-430PM",
        "thursday": "730AM-430PM",
        "wednesday": "730AM-430PM",
        "tuesday": "730AM-630PM",
        "monday": "730AM-430PM"
      },
      "phone": {
        "afterHours": "(829) 565-2845",
        "fax": "(830) 457-2366",
        "main": "(968) 482-2430"
      },
      "address": {
        "zip4": 6663,
        "zip": 7589,
        "state": "MI",
        "city": "Klondike",
        "suite": null,
        "street": "531 Anchorage Place",
        "building": null
      },
      "classification": " VA Cemetery",
      "state": "MI",
      "city": "Klondike",
      "name": "MI VA Cemetery-Klondike",
      "visnId": 128
    },
    "state": "MI",
    "city": "Klondike",
    "type": "va_cemetery",
    "id": 185
  },
  {
    "attributes": {
      "long": "-68.364545",
      "lat": "42.474362",
      "services": [
        [
          "DentalServices",
          [

          ]
        ],
        [
          "EyeCare",
          [

          ]
        ],
        [
          "MentalHealthCare",
          [
            "OutpatientMHCare",
            "OutpatientSpecMHCare",
            "VocationalAssistance"
          ]
        ],
        [
          "PrimaryCare",
          [

          ]
        ]
      ],
      "hours": {
        "sunday": "-",
        "saturday": "800AM-1000AM",
        "friday": "730AM-430PM",
        "thursday": "730AM-430PM",
        "wednesday": "730AM-430PM",
        "tuesday": "730AM-630PM",
        "monday": "730AM-430PM"
      },
      "phone": {
        "afterHours": "(836) 594-2560",
        "fax": "(922) 524-2801",
        "main": "(879) 554-3902"
      },
      "address": {
        "zip4": 5497,
        "zip": 9017,
        "state": "NV",
        "city": "Loyalhanna",
        "suite": null,
        "street": "281 Irvington Place",
        "building": null
      },
      "classification": " VA Medical Center",
      "state": "NV",
      "city": "Loyalhanna",
      "name": "NV VA Medical Center-Loyalhanna",
      "visnId": 481
    },
    "state": "NV",
    "city": "Loyalhanna",
    "type": "va_health_facility",
    "id": 594
  },
  {
    "attributes": {
      "long": "136.76192",
      "lat": "-57.672652",
      "services": [
        [
          "DentalServices",
          [

          ]
        ],
        [
          "EyeCare",
          [

          ]
        ],
        [
          "MentalHealthCare",
          [
            "OutpatientMHCare",
            "OutpatientSpecMHCare",
            "VocationalAssistance"
          ]
        ],
        [
          "PrimaryCare",
          [

          ]
        ]
      ],
      "hours": {
        "sunday": "-",
        "saturday": "800AM-1000AM",
        "friday": "730AM-430PM",
        "thursday": "730AM-430PM",
        "wednesday": "730AM-430PM",
        "tuesday": "730AM-630PM",
        "monday": "730AM-430PM"
      },
      "phone": {
        "afterHours": "(824) 530-2883",
        "fax": "(915) 412-3647",
        "main": "(948) 401-3372"
      },
      "address": {
        "zip4": 1988,
        "zip": 4395,
        "state": "AS",
        "city": "Torboy",
        "suite": null,
        "street": "229 Cobek Court",
        "building": null
      },
      "classification": " VA Medical Center",
      "state": "AS",
      "city": "Torboy",
      "name": "AS VA Medical Center-Torboy",
      "visnId": 198
    },
    "state": "AS",
    "city": "Torboy",
    "type": "va_health_facility",
    "id": 517
  },
  {
    "attributes": {
      "long": "82.362831",
      "lat": "-77.916129",
      "services": null,
      "hours": {
        "sunday": "-",
        "saturday": "800AM-1000AM",
        "friday": "730AM-430PM",
        "thursday": "730AM-430PM",
        "wednesday": "730AM-430PM",
        "tuesday": "730AM-630PM",
        "monday": "730AM-430PM"
      },
      "phone": {
        "afterHours": "(978) 514-3310",
        "fax": "(946) 525-2346",
        "main": "(965) 563-3161"
      },
      "address": {
        "zip4": 7003,
        "zip": 4523,
        "state": "WY",
        "city": "Juntura",
        "suite": null,
        "street": "365 Arlington Avenue",
        "building": null
      },
      "classification": " VA Benfits Office",
      "state": "WY",
      "city": "Juntura",
      "name": "WY VA Benfits Office-Juntura",
      "visnId": 766
    },
    "state": "WY",
    "city": "Juntura",
    "type": "va_benefits_facility",
    "id": 233
  },
  {
    "attributes": {
      "long": "-52.322408",
      "lat": "47.892371",
      "services": null,
      "hours": {
        "sunday": "-",
        "saturday": "800AM-1000AM",
        "friday": "730AM-430PM",
        "thursday": "730AM-430PM",
        "wednesday": "730AM-430PM",
        "tuesday": "730AM-630PM",
        "monday": "730AM-430PM"
      },
      "phone": {
        "afterHours": "(978) 596-2022",
        "fax": "(852) 410-2808",
        "main": "(818) 489-3755"
      },
      "address": {
        "zip4": 2666,
        "zip": 5711,
        "state": "WV",
        "city": "Gracey",
        "suite": null,
        "street": "975 Woodrow Court",
        "building": null
      },
      "classification": " VA Cemetery",
      "state": "WV",
      "city": "Gracey",
      "name": "WV VA Cemetery-Gracey",
      "visnId": 390
    },
    "state": "WV",
    "city": "Gracey",
    "type": "va_cemetery",
    "id": 932
  },
  {
    "attributes": {
      "long": "50.847082",
      "lat": "16.716487",
      "services": null,
      "hours": {
        "sunday": "-",
        "saturday": "800AM-1000AM",
        "friday": "730AM-430PM",
        "thursday": "730AM-430PM",
        "wednesday": "730AM-430PM",
        "tuesday": "730AM-630PM",
        "monday": "730AM-430PM"
      },
      "phone": {
        "afterHours": "(807) 408-3573",
        "fax": "(896) 575-3717",
        "main": "(969) 563-2956"
      },
      "address": {
        "zip4": 5770,
        "zip": 7387,
        "state": "CA",
        "city": "Kohatk",
        "suite": null,
        "street": "654 Vermont Street",
        "building": null
      },
      "classification": " VA Benfits Office",
      "state": "CA",
      "city": "Kohatk",
      "name": "CA VA Benfits Office-Kohatk",
      "visnId": 950
    },
    "state": "CA",
    "city": "Kohatk",
    "type": "va_benefits_facility",
    "id": 673
  },
  {
    "attributes": {
      "long": "-43.432775",
      "lat": "-38.082253",
      "services": [
        [
          "DentalServices",
          [

          ]
        ],
        [
          "EyeCare",
          [

          ]
        ],
        [
          "MentalHealthCare",
          [
            "OutpatientMHCare",
            "OutpatientSpecMHCare",
            "VocationalAssistance"
          ]
        ],
        [
          "PrimaryCare",
          [

          ]
        ]
      ],
      "hours": {
        "sunday": "-",
        "saturday": "800AM-1000AM",
        "friday": "730AM-430PM",
        "thursday": "730AM-430PM",
        "wednesday": "730AM-430PM",
        "tuesday": "730AM-630PM",
        "monday": "730AM-430PM"
      },
      "phone": {
        "afterHours": "(893) 599-2365",
        "fax": "(996) 489-2514",
        "main": "(994) 571-2996"
      },
      "address": {
        "zip4": 6147,
        "zip": 7549,
        "state": "IL",
        "city": "Stewartville",
        "suite": null,
        "street": "395 Alabama Avenue",
        "building": null
      },
      "classification": " VA Medical Center",
      "state": "IL",
      "city": "Stewartville",
      "name": "IL VA Medical Center-Stewartville",
      "visnId": 147
    },
    "state": "IL",
    "city": "Stewartville",
    "type": "va_health_facility",
    "id": 512
  },
  {
    "attributes": {
      "long": "-127.743417",
      "lat": "6.614527",
      "services": [
        [
          "DentalServices",
          [

          ]
        ],
        [
          "EyeCare",
          [

          ]
        ],
        [
          "MentalHealthCare",
          [
            "OutpatientMHCare",
            "OutpatientSpecMHCare",
            "VocationalAssistance"
          ]
        ],
        [
          "PrimaryCare",
          [

          ]
        ]
      ],
      "hours": {
        "sunday": "-",
        "saturday": "800AM-1000AM",
        "friday": "730AM-430PM",
        "thursday": "730AM-430PM",
        "wednesday": "730AM-430PM",
        "tuesday": "730AM-630PM",
        "monday": "730AM-430PM"
      },
      "phone": {
        "afterHours": "(890) 533-3703",
        "fax": "(841) 564-3508",
        "main": "(958) 486-2870"
      },
      "address": {
        "zip4": 4155,
        "zip": 2041,
        "state": "NM",
        "city": "Roeville",
        "suite": null,
        "street": "863 Pilling Street",
        "building": null
      },
      "classification": " VA Medical Center",
      "state": "NM",
      "city": "Roeville",
      "name": "NM VA Medical Center-Roeville",
      "visnId": 411
    },
    "state": "NM",
    "city": "Roeville",
    "type": "va_health_facility",
    "id": 928
  },
  {
    "attributes": {
      "long": "-129.000731",
      "lat": "25.695809",
      "services": null,
      "hours": {
        "sunday": "-",
        "saturday": "800AM-1000AM",
        "friday": "730AM-430PM",
        "thursday": "730AM-430PM",
        "wednesday": "730AM-430PM",
        "tuesday": "730AM-630PM",
        "monday": "730AM-430PM"
      },
      "phone": {
        "afterHours": "(979) 574-3754",
        "fax": "(974) 505-2946",
        "main": "(894) 590-3394"
      },
      "address": {
        "zip4": 8366,
        "zip": 3545,
        "state": "VA",
        "city": "Sanborn",
        "suite": null,
        "street": "743 Micieli Place",
        "building": null
      },
      "classification": " VA Benfits Office",
      "state": "VA",
      "city": "Sanborn",
      "name": "VA VA Benfits Office-Sanborn",
      "visnId": 755
    },
    "state": "VA",
    "city": "Sanborn",
    "type": "va_benefits_facility",
    "id": 640
  },
  {
    "attributes": {
      "long": "-52.573155",
      "lat": "-79.918251",
      "services": null,
      "hours": {
        "sunday": "-",
        "saturday": "800AM-1000AM",
        "friday": "730AM-430PM",
        "thursday": "730AM-430PM",
        "wednesday": "730AM-430PM",
        "tuesday": "730AM-630PM",
        "monday": "730AM-430PM"
      },
      "phone": {
        "afterHours": "(906) 574-2505",
        "fax": "(925) 490-2983",
        "main": "(817) 427-2957"
      },
      "address": {
        "zip4": 3272,
        "zip": 6617,
        "state": "FM",
        "city": "Gibsonia",
        "suite": null,
        "street": "981 Clifton Place",
        "building": null
      },
      "classification": " VA Benfits Office",
      "state": "FM",
      "city": "Gibsonia",
      "name": "FM VA Benfits Office-Gibsonia",
      "visnId": 373
    },
    "state": "FM",
    "city": "Gibsonia",
    "type": "va_benefits_facility",
    "id": 801
  },
  {
    "attributes": {
      "long": "76.235638",
      "lat": "-2.07385",
      "services": [
        [
          "DentalServices",
          [

          ]
        ],
        [
          "EyeCare",
          [

          ]
        ],
        [
          "MentalHealthCare",
          [
            "OutpatientMHCare",
            "OutpatientSpecMHCare",
            "VocationalAssistance"
          ]
        ],
        [
          "PrimaryCare",
          [

          ]
        ]
      ],
      "hours": {
        "sunday": "-",
        "saturday": "800AM-1000AM",
        "friday": "730AM-430PM",
        "thursday": "730AM-430PM",
        "wednesday": "730AM-430PM",
        "tuesday": "730AM-630PM",
        "monday": "730AM-430PM"
      },
      "phone": {
        "afterHours": "(987) 491-2018",
        "fax": "(823) 478-3811",
        "main": "(943) 425-2951"
      },
      "address": {
        "zip4": 6814,
        "zip": 6567,
        "state": "DE",
        "city": "Grenelefe",
        "suite": null,
        "street": "242 Hazel Court",
        "building": null
      },
      "classification": " VA Medical Center",
      "state": "DE",
      "city": "Grenelefe",
      "name": "DE VA Medical Center-Grenelefe",
      "visnId": 889
    },
    "state": "DE",
    "city": "Grenelefe",
    "type": "va_health_facility",
    "id": 903
  },
  {
    "attributes": {
      "long": "165.6216",
      "lat": "-25.378815",
      "services": [
        [
          "DentalServices",
          [

          ]
        ],
        [
          "EyeCare",
          [

          ]
        ],
        [
          "MentalHealthCare",
          [
            "OutpatientMHCare",
            "OutpatientSpecMHCare",
            "VocationalAssistance"
          ]
        ],
        [
          "PrimaryCare",
          [

          ]
        ]
      ],
      "hours": {
        "sunday": "-",
        "saturday": "800AM-1000AM",
        "friday": "730AM-430PM",
        "thursday": "730AM-430PM",
        "wednesday": "730AM-430PM",
        "tuesday": "730AM-630PM",
        "monday": "730AM-430PM"
      },
      "phone": {
        "afterHours": "(987) 560-2511",
        "fax": "(950) 421-3206",
        "main": "(843) 541-3242"
      },
      "address": {
        "zip4": 5804,
        "zip": 8163,
        "state": "WA",
        "city": "Benson",
        "suite": null,
        "street": "950 Christopher Avenue",
        "building": null
      },
      "classification": " VA Medical Center",
      "state": "WA",
      "city": "Benson",
      "name": "WA VA Medical Center-Benson",
      "visnId": 580
    },
    "state": "WA",
    "city": "Benson",
    "type": "va_health_facility",
    "id": 238
  },
  {
    "attributes": {
      "long": "-122.130241",
      "lat": "19.461774",
      "services": null,
      "hours": {
        "sunday": "-",
        "saturday": "800AM-1000AM",
        "friday": "730AM-430PM",
        "thursday": "730AM-430PM",
        "wednesday": "730AM-430PM",
        "tuesday": "730AM-630PM",
        "monday": "730AM-430PM"
      },
      "phone": {
        "afterHours": "(833) 579-3390",
        "fax": "(906) 541-2355",
        "main": "(930) 493-2368"
      },
      "address": {
        "zip4": 8167,
        "zip": 6977,
        "state": "MA",
        "city": "Jacksonburg",
        "suite": null,
        "street": "227 Verona Place",
        "building": null
      },
      "classification": " VA Benfits Office",
      "state": "MA",
      "city": "Jacksonburg",
      "name": "MA VA Benfits Office-Jacksonburg",
      "visnId": 365
    },
    "state": "MA",
    "city": "Jacksonburg",
    "type": "va_benefits_facility",
    "id": 225
  },
  {
    "attributes": {
      "long": "-50.884095",
      "lat": "-58.83808",
      "services": [
        [
          "DentalServices",
          [

          ]
        ],
        [
          "EyeCare",
          [

          ]
        ],
        [
          "MentalHealthCare",
          [
            "OutpatientMHCare",
            "OutpatientSpecMHCare",
            "VocationalAssistance"
          ]
        ],
        [
          "PrimaryCare",
          [

          ]
        ]
      ],
      "hours": {
        "sunday": "-",
        "saturday": "800AM-1000AM",
        "friday": "730AM-430PM",
        "thursday": "730AM-430PM",
        "wednesday": "730AM-430PM",
        "tuesday": "730AM-630PM",
        "monday": "730AM-430PM"
      },
      "phone": {
        "afterHours": "(922) 501-2732",
        "fax": "(801) 554-3273",
        "main": "(900) 552-2645"
      },
      "address": {
        "zip4": 7578,
        "zip": 7237,
        "state": "AZ",
        "city": "Edmund",
        "suite": null,
        "street": "219 Rugby Road",
        "building": null
      },
      "classification": " VA Medical Center",
      "state": "AZ",
      "city": "Edmund",
      "name": "AZ VA Medical Center-Edmund",
      "visnId": 664
    },
    "state": "AZ",
    "city": "Edmund",
    "type": "va_health_facility",
    "id": 370
  },
  {
    "attributes": {
      "long": "-32.672112",
      "lat": "-40.526874",
      "services": null,
      "hours": {
        "sunday": "-",
        "saturday": "800AM-1000AM",
        "friday": "730AM-430PM",
        "thursday": "730AM-430PM",
        "wednesday": "730AM-430PM",
        "tuesday": "730AM-630PM",
        "monday": "730AM-430PM"
      },
      "phone": {
        "afterHours": "(891) 491-3679",
        "fax": "(842) 481-2661",
        "main": "(888) 465-3876"
      },
      "address": {
        "zip4": 4105,
        "zip": 1053,
        "state": "PW",
        "city": "Dante",
        "suite": null,
        "street": "387 Knickerbocker Avenue",
        "building": null
      },
      "classification": " VA Cemetery",
      "state": "PW",
      "city": "Dante",
      "name": "PW VA Cemetery-Dante",
      "visnId": 169
    },
    "state": "PW",
    "city": "Dante",
    "type": "va_cemetery",
    "id": 571
  },
  {
    "attributes": {
      "long": "130.07621",
      "lat": "-77.540471",
      "services": null,
      "hours": {
        "sunday": "-",
        "saturday": "800AM-1000AM",
        "friday": "730AM-430PM",
        "thursday": "730AM-430PM",
        "wednesday": "730AM-430PM",
        "tuesday": "730AM-630PM",
        "monday": "730AM-430PM"
      },
      "phone": {
        "afterHours": "(938) 418-2834",
        "fax": "(864) 539-2726",
        "main": "(801) 471-2552"
      },
      "address": {
        "zip4": 7391,
        "zip": 5358,
        "state": "ME",
        "city": "Stevens",
        "suite": null,
        "street": "617 Lexington Avenue",
        "building": null
      },
      "classification": " VA Benfits Office",
      "state": "ME",
      "city": "Stevens",
      "name": "ME VA Benfits Office-Stevens",
      "visnId": 340
    },
    "state": "ME",
    "city": "Stevens",
    "type": "va_benefits_facility",
    "id": 219
  },
  {
    "attributes": {
      "long": "-100.416715",
      "lat": "73.72656",
      "services": null,
      "hours": {
        "sunday": "-",
        "saturday": "800AM-1000AM",
        "friday": "730AM-430PM",
        "thursday": "730AM-430PM",
        "wednesday": "730AM-430PM",
        "tuesday": "730AM-630PM",
        "monday": "730AM-430PM"
      },
      "phone": {
        "afterHours": "(815) 574-3811",
        "fax": "(837) 545-2396",
        "main": "(816) 522-3568"
      },
      "address": {
        "zip4": 4838,
        "zip": 5468,
        "state": "DC",
        "city": "Gila",
        "suite": null,
        "street": "824 Lyme Avenue",
        "building": null
      },
      "classification": " VA Cemetery",
      "state": "DC",
      "city": "Gila",
      "name": "DC VA Cemetery-Gila",
      "visnId": 876
    },
    "state": "DC",
    "city": "Gila",
    "type": "va_cemetery",
    "id": 810
  },
  {
    "attributes": {
      "long": "-72.089313",
      "lat": "69.887785",
      "services": null,
      "hours": {
        "sunday": "-",
        "saturday": "800AM-1000AM",
        "friday": "730AM-430PM",
        "thursday": "730AM-430PM",
        "wednesday": "730AM-430PM",
        "tuesday": "730AM-630PM",
        "monday": "730AM-430PM"
      },
      "phone": {
        "afterHours": "(990) 507-2910",
        "fax": "(967) 415-3146",
        "main": "(953) 407-2434"
      },
      "address": {
        "zip4": 3900,
        "zip": 7178,
        "state": "OH",
        "city": "Morgandale",
        "suite": null,
        "street": "722 Graham Avenue",
        "building": null
      },
      "classification": " VA Cemetery",
      "state": "OH",
      "city": "Morgandale",
      "name": "OH VA Cemetery-Morgandale",
      "visnId": 362
    },
    "state": "OH",
    "city": "Morgandale",
    "type": "va_cemetery",
    "id": 617
  },
  {
    "attributes": {
      "long": "-158.30308",
      "lat": "19.312652",
      "services": [
        [
          "DentalServices",
          [

          ]
        ],
        [
          "EyeCare",
          [

          ]
        ],
        [
          "MentalHealthCare",
          [
            "OutpatientMHCare",
            "OutpatientSpecMHCare",
            "VocationalAssistance"
          ]
        ],
        [
          "PrimaryCare",
          [

          ]
        ]
      ],
      "hours": {
        "sunday": "-",
        "saturday": "800AM-1000AM",
        "friday": "730AM-430PM",
        "thursday": "730AM-430PM",
        "wednesday": "730AM-430PM",
        "tuesday": "730AM-630PM",
        "monday": "730AM-430PM"
      },
      "phone": {
        "afterHours": "(986) 405-3074",
        "fax": "(870) 470-3423",
        "main": "(970) 401-2204"
      },
      "address": {
        "zip4": 7400,
        "zip": 3226,
        "state": "TN",
        "city": "Blanco",
        "suite": null,
        "street": "838 Campus Place",
        "building": null
      },
      "classification": " VA Medical Center",
      "state": "TN",
      "city": "Blanco",
      "name": "TN VA Medical Center-Blanco",
      "visnId": 796
    },
    "state": "TN",
    "city": "Blanco",
    "type": "va_health_facility",
    "id": 517
  },
  {
    "attributes": {
      "long": "130.29341",
      "lat": "21.555514",
      "services": null,
      "hours": {
        "sunday": "-",
        "saturday": "800AM-1000AM",
        "friday": "730AM-430PM",
        "thursday": "730AM-430PM",
        "wednesday": "730AM-430PM",
        "tuesday": "730AM-630PM",
        "monday": "730AM-430PM"
      },
      "phone": {
        "afterHours": "(949) 438-3093",
        "fax": "(876) 467-3948",
        "main": "(861) 436-2137"
      },
      "address": {
        "zip4": 5689,
        "zip": 8828,
        "state": "PR",
        "city": "Katonah",
        "suite": null,
        "street": "322 Miller Avenue",
        "building": null
      },
      "classification": " VA Cemetery",
      "state": "PR",
      "city": "Katonah",
      "name": "PR VA Cemetery-Katonah",
      "visnId": 285
    },
    "state": "PR",
    "city": "Katonah",
    "type": "va_cemetery",
    "id": 320
  },
  {
    "attributes": {
      "long": "175.100161",
      "lat": "-82.297622",
      "services": null,
      "hours": {
        "sunday": "-",
        "saturday": "800AM-1000AM",
        "friday": "730AM-430PM",
        "thursday": "730AM-430PM",
        "wednesday": "730AM-430PM",
        "tuesday": "730AM-630PM",
        "monday": "730AM-430PM"
      },
      "phone": {
        "afterHours": "(855) 504-3179",
        "fax": "(950) 590-3167",
        "main": "(982) 506-2398"
      },
      "address": {
        "zip4": 5503,
        "zip": 4318,
        "state": "UT",
        "city": "Conway",
        "suite": null,
        "street": "676 Canarsie Road",
        "building": null
      },
      "classification": " VA Cemetery",
      "state": "UT",
      "city": "Conway",
      "name": "UT VA Cemetery-Conway",
      "visnId": 836
    },
    "state": "UT",
    "city": "Conway",
    "type": "va_cemetery",
    "id": 186
  },
  {
    "attributes": {
      "long": "-116.619425",
      "lat": "80.810454",
      "services": [
        [
          "DentalServices",
          [

          ]
        ],
        [
          "EyeCare",
          [

          ]
        ],
        [
          "MentalHealthCare",
          [
            "OutpatientMHCare",
            "OutpatientSpecMHCare",
            "VocationalAssistance"
          ]
        ],
        [
          "PrimaryCare",
          [

          ]
        ]
      ],
      "hours": {
        "sunday": "-",
        "saturday": "800AM-1000AM",
        "friday": "730AM-430PM",
        "thursday": "730AM-430PM",
        "wednesday": "730AM-430PM",
        "tuesday": "730AM-630PM",
        "monday": "730AM-430PM"
      },
      "phone": {
        "afterHours": "(932) 479-2866",
        "fax": "(991) 559-2739",
        "main": "(890) 562-3711"
      },
      "address": {
        "zip4": 4604,
        "zip": 1473,
        "state": "GA",
        "city": "Elbert",
        "suite": null,
        "street": "840 Strickland Avenue",
        "building": null
      },
      "classification": " VA Medical Center",
      "state": "GA",
      "city": "Elbert",
      "name": "GA VA Medical Center-Elbert",
      "visnId": 798
    },
    "state": "GA",
    "city": "Elbert",
    "type": "va_health_facility",
    "id": 370
  },
  {
    "attributes": {
      "long": "-173.994295",
      "lat": "-48.756952",
      "services": null,
      "hours": {
        "sunday": "-",
        "saturday": "800AM-1000AM",
        "friday": "730AM-430PM",
        "thursday": "730AM-430PM",
        "wednesday": "730AM-430PM",
        "tuesday": "730AM-630PM",
        "monday": "730AM-430PM"
      },
      "phone": {
        "afterHours": "(868) 404-3418",
        "fax": "(995) 548-3129",
        "main": "(868) 572-2584"
      },
      "address": {
        "zip4": 7559,
        "zip": 5490,
        "state": "IA",
        "city": "Wells",
        "suite": null,
        "street": "475 Lancaster Avenue",
        "building": null
      },
      "classification": " VA Cemetery",
      "state": "IA",
      "city": "Wells",
      "name": "IA VA Cemetery-Wells",
      "visnId": 823
    },
    "state": "IA",
    "city": "Wells",
    "type": "va_cemetery",
    "id": 400
  },
  {
    "attributes": {
      "long": "47.588166",
      "lat": "-20.113632",
      "services": null,
      "hours": {
        "sunday": "-",
        "saturday": "800AM-1000AM",
        "friday": "730AM-430PM",
        "thursday": "730AM-430PM",
        "wednesday": "730AM-430PM",
        "tuesday": "730AM-630PM",
        "monday": "730AM-430PM"
      },
      "phone": {
        "afterHours": "(874) 491-3708",
        "fax": "(844) 534-3455",
        "main": "(913) 533-3499"
      },
      "address": {
        "zip4": 8570,
        "zip": 5683,
        "state": "AL",
        "city": "Kapowsin",
        "suite": null,
        "street": "798 Matthews Place",
        "building": null
      },
      "classification": " VA Cemetery",
      "state": "AL",
      "city": "Kapowsin",
      "name": "AL VA Cemetery-Kapowsin",
      "visnId": 940
    },
    "state": "AL",
    "city": "Kapowsin",
    "type": "va_cemetery",
    "id": 836
  },
  {
    "attributes": {
      "long": "90.775212",
      "lat": "-31.635167",
      "services": null,
      "hours": {
        "sunday": "-",
        "saturday": "800AM-1000AM",
        "friday": "730AM-430PM",
        "thursday": "730AM-430PM",
        "wednesday": "730AM-430PM",
        "tuesday": "730AM-630PM",
        "monday": "730AM-430PM"
      },
      "phone": {
        "afterHours": "(800) 565-2173",
        "fax": "(871) 599-2071",
        "main": "(995) 598-3468"
      },
      "address": {
        "zip4": 2775,
        "zip": 6121,
        "state": "NC",
        "city": "Orin",
        "suite": null,
        "street": "241 Kingsway Place",
        "building": null
      },
      "classification": " VA Benfits Office",
      "state": "NC",
      "city": "Orin",
      "name": "NC VA Benfits Office-Orin",
      "visnId": 972
    },
    "state": "NC",
    "city": "Orin",
    "type": "va_benefits_facility",
    "id": 153
  },
  {
    "attributes": {
      "long": "-166.147066",
      "lat": "-27.635592",
      "services": null,
      "hours": {
        "sunday": "-",
        "saturday": "800AM-1000AM",
        "friday": "730AM-430PM",
        "thursday": "730AM-430PM",
        "wednesday": "730AM-430PM",
        "tuesday": "730AM-630PM",
        "monday": "730AM-430PM"
      },
      "phone": {
        "afterHours": "(870) 586-2459",
        "fax": "(915) 415-2573",
        "main": "(883) 524-2021"
      },
      "address": {
        "zip4": 3164,
        "zip": 5838,
        "state": "AR",
        "city": "Sehili",
        "suite": null,
        "street": "188 Everit Street",
        "building": null
      },
      "classification": " VA Benfits Office",
      "state": "AR",
      "city": "Sehili",
      "name": "AR VA Benfits Office-Sehili",
      "visnId": 188
    },
    "state": "AR",
    "city": "Sehili",
    "type": "va_benefits_facility",
    "id": 239
  },
  {
    "attributes": {
      "long": "104.710049",
      "lat": "2.792934",
      "services": null,
      "hours": {
        "sunday": "-",
        "saturday": "800AM-1000AM",
        "friday": "730AM-430PM",
        "thursday": "730AM-430PM",
        "wednesday": "730AM-430PM",
        "tuesday": "730AM-630PM",
        "monday": "730AM-430PM"
      },
      "phone": {
        "afterHours": "(980) 460-2041",
        "fax": "(982) 536-2272",
        "main": "(827) 558-2999"
      },
      "address": {
        "zip4": 1528,
        "zip": 4499,
        "state": "MP",
        "city": "Hamilton",
        "suite": null,
        "street": "719 Montauk Court",
        "building": null
      },
      "classification": " VA Cemetery",
      "state": "MP",
      "city": "Hamilton",
      "name": "MP VA Cemetery-Hamilton",
      "visnId": 909
    },
    "state": "MP",
    "city": "Hamilton",
    "type": "va_cemetery",
    "id": 110
  },
  {
    "attributes": {
      "long": "-35.279509",
      "lat": "77.64136",
      "services": null,
      "hours": {
        "sunday": "-",
        "saturday": "800AM-1000AM",
        "friday": "730AM-430PM",
        "thursday": "730AM-430PM",
        "wednesday": "730AM-430PM",
        "tuesday": "730AM-630PM",
        "monday": "730AM-430PM"
      },
      "phone": {
        "afterHours": "(973) 514-2784",
        "fax": "(895) 420-3697",
        "main": "(991) 533-2994"
      },
      "address": {
        "zip4": 6818,
        "zip": 2659,
        "state": "KS",
        "city": "Wright",
        "suite": null,
        "street": "554 Rodney Street",
        "building": null
      },
      "classification": " VA Cemetery",
      "state": "KS",
      "city": "Wright",
      "name": "KS VA Cemetery-Wright",
      "visnId": 565
    },
    "state": "KS",
    "city": "Wright",
    "type": "va_cemetery",
    "id": 374
  },
  {
    "attributes": {
      "long": "131.392225",
      "lat": "-89.224904",
      "services": null,
      "hours": {
        "sunday": "-",
        "saturday": "800AM-1000AM",
        "friday": "730AM-430PM",
        "thursday": "730AM-430PM",
        "wednesday": "730AM-430PM",
        "tuesday": "730AM-630PM",
        "monday": "730AM-430PM"
      },
      "phone": {
        "afterHours": "(877) 590-3698",
        "fax": "(808) 512-2488",
        "main": "(948) 418-2396"
      },
      "address": {
        "zip4": 2701,
        "zip": 2676,
        "state": "ND",
        "city": "Boomer",
        "suite": null,
        "street": "268 Butler Place",
        "building": null
      },
      "classification": " VA Cemetery",
      "state": "ND",
      "city": "Boomer",
      "name": "ND VA Cemetery-Boomer",
      "visnId": 312
    },
    "state": "ND",
    "city": "Boomer",
    "type": "va_cemetery",
    "id": 886
  },
  {
    "attributes": {
      "long": "-31.95845",
      "lat": "-49.549407",
      "services": null,
      "hours": {
        "sunday": "-",
        "saturday": "800AM-1000AM",
        "friday": "730AM-430PM",
        "thursday": "730AM-430PM",
        "wednesday": "730AM-430PM",
        "tuesday": "730AM-630PM",
        "monday": "730AM-430PM"
      },
      "phone": {
        "afterHours": "(811) 450-3236",
        "fax": "(833) 552-3737",
        "main": "(891) 476-3393"
      },
      "address": {
        "zip4": 4242,
        "zip": 1292,
        "state": "HI",
        "city": "Wescosville",
        "suite": null,
        "street": "319 Union Street",
        "building": null
      },
      "classification": " VA Cemetery",
      "state": "HI",
      "city": "Wescosville",
      "name": "HI VA Cemetery-Wescosville",
      "visnId": 890
    },
    "state": "HI",
    "city": "Wescosville",
    "type": "va_cemetery",
    "id": 720
  },
  {
    "attributes": {
      "long": "-170.745785",
      "lat": "32.550348",
      "services": null,
      "hours": {
        "sunday": "-",
        "saturday": "800AM-1000AM",
        "friday": "730AM-430PM",
        "thursday": "730AM-430PM",
        "wednesday": "730AM-430PM",
        "tuesday": "730AM-630PM",
        "monday": "730AM-430PM"
      },
      "phone": {
        "afterHours": "(877) 436-3322",
        "fax": "(913) 577-2993",
        "main": "(877) 557-2637"
      },
      "address": {
        "zip4": 2484,
        "zip": 6432,
        "state": "MH",
        "city": "Sena",
        "suite": null,
        "street": "566 Rockaway Avenue",
        "building": null
      },
      "classification": " VA Benfits Office",
      "state": "MH",
      "city": "Sena",
      "name": "MH VA Benfits Office-Sena",
      "visnId": 862
    },
    "state": "MH",
    "city": "Sena",
    "type": "va_benefits_facility",
    "id": 428
  },
  {
    "attributes": {
      "long": "37.430332",
      "lat": "-81.453684",
      "services": null,
      "hours": {
        "sunday": "-",
        "saturday": "800AM-1000AM",
        "friday": "730AM-430PM",
        "thursday": "730AM-430PM",
        "wednesday": "730AM-430PM",
        "tuesday": "730AM-630PM",
        "monday": "730AM-430PM"
      },
      "phone": {
        "afterHours": "(911) 446-3313",
        "fax": "(830) 531-3102",
        "main": "(964) 439-2640"
      },
      "address": {
        "zip4": 8896,
        "zip": 8070,
        "state": "GU",
        "city": "Allendale",
        "suite": null,
        "street": "908 Noble Street",
        "building": null
      },
      "classification": " VA Cemetery",
      "state": "GU",
      "city": "Allendale",
      "name": "GU VA Cemetery-Allendale",
      "visnId": 322
    },
    "state": "GU",
    "city": "Allendale",
    "type": "va_cemetery",
    "id": 756
  },
  {
    "attributes": {
      "long": "-108.068448",
      "lat": "34.759643",
      "services": null,
      "hours": {
        "sunday": "-",
        "saturday": "800AM-1000AM",
        "friday": "730AM-430PM",
        "thursday": "730AM-430PM",
        "wednesday": "730AM-430PM",
        "tuesday": "730AM-630PM",
        "monday": "730AM-430PM"
      },
      "phone": {
        "afterHours": "(952) 534-3320",
        "fax": "(899) 467-2716",
        "main": "(807) 498-3794"
      },
      "address": {
        "zip4": 8037,
        "zip": 3282,
        "state": "MD",
        "city": "Waiohinu",
        "suite": null,
        "street": "441 Fay Court",
        "building": null
      },
      "classification": " VA Cemetery",
      "state": "MD",
      "city": "Waiohinu",
      "name": "MD VA Cemetery-Waiohinu",
      "visnId": 941
    },
    "state": "MD",
    "city": "Waiohinu",
    "type": "va_cemetery",
    "id": 226
  },
  {
    "attributes": {
      "long": "166.09384",
      "lat": "1.027476",
      "services": null,
      "hours": {
        "sunday": "-",
        "saturday": "800AM-1000AM",
        "friday": "730AM-430PM",
        "thursday": "730AM-430PM",
        "wednesday": "730AM-430PM",
        "tuesday": "730AM-630PM",
        "monday": "730AM-430PM"
      },
      "phone": {
        "afterHours": "(951) 437-3300",
        "fax": "(958) 447-3331",
        "main": "(887) 553-2603"
      },
      "address": {
        "zip4": 1861,
        "zip": 8108,
        "state": "MS",
        "city": "Adelino",
        "suite": null,
        "street": "697 Canal Avenue",
        "building": null
      },
      "classification": " VA Cemetery",
      "state": "MS",
      "city": "Adelino",
      "name": "MS VA Cemetery-Adelino",
      "visnId": 629
    },
    "state": "MS",
    "city": "Adelino",
    "type": "va_cemetery",
    "id": 201
  },
  {
    "attributes": {
      "long": "73.93758",
      "lat": "17.871849",
      "services": null,
      "hours": {
        "sunday": "-",
        "saturday": "800AM-1000AM",
        "friday": "730AM-430PM",
        "thursday": "730AM-430PM",
        "wednesday": "730AM-430PM",
        "tuesday": "730AM-630PM",
        "monday": "730AM-430PM"
      },
      "phone": {
        "afterHours": "(877) 427-3273",
        "fax": "(885) 549-2803",
        "main": "(989) 547-3271"
      },
      "address": {
        "zip4": 3062,
        "zip": 2819,
        "state": "NJ",
        "city": "Waumandee",
        "suite": null,
        "street": "861 Pineapple Street",
        "building": null
      },
      "classification": " VA Benfits Office",
      "state": "NJ",
      "city": "Waumandee",
      "name": "NJ VA Benfits Office-Waumandee",
      "visnId": 986
    },
    "state": "NJ",
    "city": "Waumandee",
    "type": "va_benefits_facility",
    "id": 243
  },
  {
    "attributes": {
      "long": "-45.620885",
      "lat": "-79.603426",
      "services": null,
      "hours": {
        "sunday": "-",
        "saturday": "800AM-1000AM",
        "friday": "730AM-430PM",
        "thursday": "730AM-430PM",
        "wednesday": "730AM-430PM",
        "tuesday": "730AM-630PM",
        "monday": "730AM-430PM"
      },
      "phone": {
        "afterHours": "(865) 459-2179",
        "fax": "(903) 505-3712",
        "main": "(981) 501-3449"
      },
      "address": {
        "zip4": 7680,
        "zip": 8152,
        "state": "KY",
        "city": "Coultervillle",
        "suite": null,
        "street": "895 Beach Place",
        "building": null
      },
      "classification": " VA Benfits Office",
      "state": "KY",
      "city": "Coultervillle",
      "name": "KY VA Benfits Office-Coultervillle",
      "visnId": 284
    },
    "state": "KY",
    "city": "Coultervillle",
    "type": "va_benefits_facility",
    "id": 421
  },
  {
    "attributes": {
      "long": "-94.12231",
      "lat": "-11.517601",
      "services": null,
      "hours": {
        "sunday": "-",
        "saturday": "800AM-1000AM",
        "friday": "730AM-430PM",
        "thursday": "730AM-430PM",
        "wednesday": "730AM-430PM",
        "tuesday": "730AM-630PM",
        "monday": "730AM-430PM"
      },
      "phone": {
        "afterHours": "(804) 406-2902",
        "fax": "(891) 507-2763",
        "main": "(825) 411-3276"
      },
      "address": {
        "zip4": 7902,
        "zip": 4205,
        "state": "CO",
        "city": "Waukeenah",
        "suite": null,
        "street": "839 Just Court",
        "building": null
      },
      "classification": " VA Benfits Office",
      "state": "CO",
      "city": "Waukeenah",
      "name": "CO VA Benfits Office-Waukeenah",
      "visnId": 627
    },
    "state": "CO",
    "city": "Waukeenah",
    "type": "va_benefits_facility",
    "id": 644
  },
  {
    "attributes": {
      "long": "-107.210519",
      "lat": "-14.238095",
      "services": null,
      "hours": {
        "sunday": "-",
        "saturday": "800AM-1000AM",
        "friday": "730AM-430PM",
        "thursday": "730AM-430PM",
        "wednesday": "730AM-430PM",
        "tuesday": "730AM-630PM",
        "monday": "730AM-430PM"
      },
      "phone": {
        "afterHours": "(834) 448-2897",
        "fax": "(932) 432-3800",
        "main": "(904) 446-2445"
      },
      "address": {
        "zip4": 8881,
        "zip": 7889,
        "state": "VI",
        "city": "Northchase",
        "suite": null,
        "street": "683 Voorhies Avenue",
        "building": null
      },
      "classification": " VA Benfits Office",
      "state": "VI",
      "city": "Northchase",
      "name": "VI VA Benfits Office-Northchase",
      "visnId": 692
    },
    "state": "VI",
    "city": "Northchase",
    "type": "va_benefits_facility",
    "id": 977
  },
  {
    "attributes": {
      "long": "-115.012839",
      "lat": "84.556112",
      "services": null,
      "hours": {
        "sunday": "-",
        "saturday": "800AM-1000AM",
        "friday": "730AM-430PM",
        "thursday": "730AM-430PM",
        "wednesday": "730AM-430PM",
        "tuesday": "730AM-630PM",
        "monday": "730AM-430PM"
      },
      "phone": {
        "afterHours": "(873) 600-2633",
        "fax": "(806) 410-3215",
        "main": "(974) 581-2064"
      },
      "address": {
        "zip4": 8452,
        "zip": 3218,
        "state": "SD",
        "city": "Bellfountain",
        "suite": null,
        "street": "761 Stryker Street",
        "building": null
      },
      "classification": " VA Cemetery",
      "state": "SD",
      "city": "Bellfountain",
      "name": "SD VA Cemetery-Bellfountain",
      "visnId": 423
    },
    "state": "SD",
    "city": "Bellfountain",
    "type": "va_cemetery",
    "id": 580
  },
  {
    "attributes": {
      "long": "70.365908",
      "lat": "53.785665",
      "services": null,
      "hours": {
        "sunday": "-",
        "saturday": "800AM-1000AM",
        "friday": "730AM-430PM",
        "thursday": "730AM-430PM",
        "wednesday": "730AM-430PM",
        "tuesday": "730AM-630PM",
        "monday": "730AM-430PM"
      },
      "phone": {
        "afterHours": "(846) 507-3914",
        "fax": "(863) 420-3126",
        "main": "(886) 458-3951"
      },
      "address": {
        "zip4": 4040,
        "zip": 2489,
        "state": "CT",
        "city": "Gorst",
        "suite": null,
        "street": "400 Meeker Avenue",
        "building": null
      },
      "classification": " VA Cemetery",
      "state": "CT",
      "city": "Gorst",
      "name": "CT VA Cemetery-Gorst",
      "visnId": 345
    },
    "state": "CT",
    "city": "Gorst",
    "type": "va_cemetery",
    "id": 780
  },
  {
    "attributes": {
      "long": "103.013558",
      "lat": "61.204358",
      "services": null,
      "hours": {
        "sunday": "-",
        "saturday": "800AM-1000AM",
        "friday": "730AM-430PM",
        "thursday": "730AM-430PM",
        "wednesday": "730AM-430PM",
        "tuesday": "730AM-630PM",
        "monday": "730AM-430PM"
      },
      "phone": {
        "afterHours": "(999) 434-3824",
        "fax": "(835) 454-2082",
        "main": "(811) 588-2062"
      },
      "address": {
        "zip4": 3816,
        "zip": 5809,
        "state": "RI",
        "city": "Steinhatchee",
        "suite": null,
        "street": "808 Shale Street",
        "building": null
      },
      "classification": " VA Benfits Office",
      "state": "RI",
      "city": "Steinhatchee",
      "name": "RI VA Benfits Office-Steinhatchee",
      "visnId": 665
    },
    "state": "RI",
    "city": "Steinhatchee",
    "type": "va_benefits_facility",
    "id": 259
  },
  {
    "attributes": {
      "long": "118.069551",
      "lat": "-24.328755",
      "services": [
        [
          "DentalServices",
          [

          ]
        ],
        [
          "EyeCare",
          [

          ]
        ],
        [
          "MentalHealthCare",
          [
            "OutpatientMHCare",
            "OutpatientSpecMHCare",
            "VocationalAssistance"
          ]
        ],
        [
          "PrimaryCare",
          [

          ]
        ]
      ],
      "hours": {
        "sunday": "-",
        "saturday": "800AM-1000AM",
        "friday": "730AM-430PM",
        "thursday": "730AM-430PM",
        "wednesday": "730AM-430PM",
        "tuesday": "730AM-630PM",
        "monday": "730AM-430PM"
      },
      "phone": {
        "afterHours": "(991) 410-3073",
        "fax": "(861) 572-3464",
        "main": "(897) 417-2825"
      },
      "address": {
        "zip4": 7851,
        "zip": 2761,
        "state": "TX",
        "city": "Hasty",
        "suite": null,
        "street": "807 Aberdeen Street",
        "building": null
      },
      "classification": " VA Medical Center",
      "state": "TX",
      "city": "Hasty",
      "name": "TX VA Medical Center-Hasty",
      "visnId": 282
    },
    "state": "TX",
    "city": "Hasty",
    "type": "va_health_facility",
    "id": 566
  },
  {
    "attributes": {
      "long": "156.908147",
      "lat": "67.502327",
      "services": [
        [
          "DentalServices",
          [

          ]
        ],
        [
          "EyeCare",
          [

          ]
        ],
        [
          "MentalHealthCare",
          [
            "OutpatientMHCare",
            "OutpatientSpecMHCare",
            "VocationalAssistance"
          ]
        ],
        [
          "PrimaryCare",
          [

          ]
        ]
      ],
      "hours": {
        "sunday": "-",
        "saturday": "800AM-1000AM",
        "friday": "730AM-430PM",
        "thursday": "730AM-430PM",
        "wednesday": "730AM-430PM",
        "tuesday": "730AM-630PM",
        "monday": "730AM-430PM"
      },
      "phone": {
        "afterHours": "(925) 415-2436",
        "fax": "(998) 484-3094",
        "main": "(832) 589-3777"
      },
      "address": {
        "zip4": 8222,
        "zip": 2971,
        "state": "MT",
        "city": "Gulf",
        "suite": null,
        "street": "818 Hinsdale Street",
        "building": null
      },
      "classification": " VA Medical Center",
      "state": "MT",
      "city": "Gulf",
      "name": "MT VA Medical Center-Gulf",
      "visnId": 323
    },
    "state": "MT",
    "city": "Gulf",
    "type": "va_health_facility",
    "id": 426
  },
  {
    "attributes": {
      "long": "-137.743685",
      "lat": "24.001272",
      "services": null,
      "hours": {
        "sunday": "-",
        "saturday": "800AM-1000AM",
        "friday": "730AM-430PM",
        "thursday": "730AM-430PM",
        "wednesday": "730AM-430PM",
        "tuesday": "730AM-630PM",
        "monday": "730AM-430PM"
      },
      "phone": {
        "afterHours": "(801) 432-3826",
        "fax": "(939) 409-2690",
        "main": "(890) 486-2840"
      },
      "address": {
        "zip4": 3930,
        "zip": 1243,
        "state": "FL",
        "city": "Emerald",
        "suite": null,
        "street": "509 Garland Court",
        "building": null
      },
      "classification": " VA Benfits Office",
      "state": "FL",
      "city": "Emerald",
      "name": "FL VA Benfits Office-Emerald",
      "visnId": 968
    },
    "state": "FL",
    "city": "Emerald",
    "type": "va_benefits_facility",
    "id": 161
  },
  {
    "attributes": {
      "long": "-66.036224",
      "lat": "-75.978732",
      "services": null,
      "hours": {
        "sunday": "-",
        "saturday": "800AM-1000AM",
        "friday": "730AM-430PM",
        "thursday": "730AM-430PM",
        "wednesday": "730AM-430PM",
        "tuesday": "730AM-630PM",
        "monday": "730AM-430PM"
      },
      "phone": {
        "afterHours": "(942) 558-3432",
        "fax": "(987) 475-2354",
        "main": "(866) 570-2568"
      },
      "address": {
        "zip4": 7116,
        "zip": 4089,
        "state": "SC",
        "city": "Caroleen",
        "suite": null,
        "street": "307 Kane Street",
        "building": null
      },
      "classification": " VA Cemetery",
      "state": "SC",
      "city": "Caroleen",
      "name": "SC VA Cemetery-Caroleen",
      "visnId": 277
    },
    "state": "SC",
    "city": "Caroleen",
    "type": "va_cemetery",
    "id": 900
  },
  {
    "attributes": {
      "long": "54.124847",
      "lat": "-10.074668",
      "services": null,
      "hours": {
        "sunday": "-",
        "saturday": "800AM-1000AM",
        "friday": "730AM-430PM",
        "thursday": "730AM-430PM",
        "wednesday": "730AM-430PM",
        "tuesday": "730AM-630PM",
        "monday": "730AM-430PM"
      },
      "phone": {
        "afterHours": "(856) 508-3112",
        "fax": "(999) 573-2020",
        "main": "(978) 559-2833"
      },
      "address": {
        "zip4": 8538,
        "zip": 7247,
        "state": "PA",
        "city": "Darbydale",
        "suite": null,
        "street": "891 Vandalia Avenue",
        "building": null
      },
      "classification": " VA Benfits Office",
      "state": "PA",
      "city": "Darbydale",
      "name": "PA VA Benfits Office-Darbydale",
      "visnId": 776
    },
    "state": "PA",
    "city": "Darbydale",
    "type": "va_benefits_facility",
    "id": 551
  },
  {
    "attributes": {
      "long": "163.669483",
      "lat": "-24.474308",
      "services": null,
      "hours": {
        "sunday": "-",
        "saturday": "800AM-1000AM",
        "friday": "730AM-430PM",
        "thursday": "730AM-430PM",
        "wednesday": "730AM-430PM",
        "tuesday": "730AM-630PM",
        "monday": "730AM-430PM"
      },
      "phone": {
        "afterHours": "(923) 464-2387",
        "fax": "(976) 593-2196",
        "main": "(852) 589-2849"
      },
      "address": {
        "zip4": 7053,
        "zip": 6659,
        "state": "AK",
        "city": "Dawn",
        "suite": null,
        "street": "418 Howard Avenue",
        "building": null
      },
      "classification": " VA Cemetery",
      "state": "AK",
      "city": "Dawn",
      "name": "AK VA Cemetery-Dawn",
      "visnId": 692
    },
    "state": "AK",
    "city": "Dawn",
    "type": "va_cemetery",
    "id": 887
  },
  {
    "attributes": {
      "long": "149.115047",
      "lat": "19.666991",
      "services": null,
      "hours": {
        "sunday": "-",
        "saturday": "800AM-1000AM",
        "friday": "730AM-430PM",
        "thursday": "730AM-430PM",
        "wednesday": "730AM-430PM",
        "tuesday": "730AM-630PM",
        "monday": "730AM-430PM"
      },
      "phone": {
        "afterHours": "(838) 487-2254",
        "fax": "(817) 430-2278",
        "main": "(983) 426-3446"
      },
      "address": {
        "zip4": 2400,
        "zip": 3730,
        "state": "OK",
        "city": "Wilmington",
        "suite": null,
        "street": "606 Pitkin Avenue",
        "building": null
      },
      "classification": " VA Benfits Office",
      "state": "OK",
      "city": "Wilmington",
      "name": "OK VA Benfits Office-Wilmington",
      "visnId": 535
    },
    "state": "OK",
    "city": "Wilmington",
    "type": "va_benefits_facility",
    "id": 242
  },
  {
    "attributes": {
      "long": "-77.138294",
      "lat": "53.51492",
      "services": [
        [
          "DentalServices",
          [

          ]
        ],
        [
          "EyeCare",
          [

          ]
        ],
        [
          "MentalHealthCare",
          [
            "OutpatientMHCare",
            "OutpatientSpecMHCare",
            "VocationalAssistance"
          ]
        ],
        [
          "PrimaryCare",
          [

          ]
        ]
      ],
      "hours": {
        "sunday": "-",
        "saturday": "800AM-1000AM",
        "friday": "730AM-430PM",
        "thursday": "730AM-430PM",
        "wednesday": "730AM-430PM",
        "tuesday": "730AM-630PM",
        "monday": "730AM-430PM"
      },
      "phone": {
        "afterHours": "(905) 552-3304",
        "fax": "(878) 526-2126",
        "main": "(965) 467-3628"
      },
      "address": {
        "zip4": 3668,
        "zip": 5222,
        "state": "VT",
        "city": "Homestead",
        "suite": null,
        "street": "658 Polhemus Place",
        "building": null
      },
      "classification": " VA Medical Center",
      "state": "VT",
      "city": "Homestead",
      "name": "VT VA Medical Center-Homestead",
      "visnId": 630
    },
    "state": "VT",
    "city": "Homestead",
    "type": "va_health_facility",
    "id": 409
  },
  {
    "attributes": {
      "long": "-112.442222",
      "lat": "-76.747829",
      "services": null,
      "hours": {
        "sunday": "-",
        "saturday": "800AM-1000AM",
        "friday": "730AM-430PM",
        "thursday": "730AM-430PM",
        "wednesday": "730AM-430PM",
        "tuesday": "730AM-630PM",
        "monday": "730AM-430PM"
      },
      "phone": {
        "afterHours": "(954) 543-3014",
        "fax": "(954) 528-2884",
        "main": "(875) 528-3950"
      },
      "address": {
        "zip4": 2031,
        "zip": 2121,
        "state": "LA",
        "city": "Cleary",
        "suite": null,
        "street": "917 Colonial Road",
        "building": null
      },
      "classification": " VA Benfits Office",
      "state": "LA",
      "city": "Cleary",
      "name": "LA VA Benfits Office-Cleary",
      "visnId": 257
    },
    "state": "LA",
    "city": "Cleary",
    "type": "va_benefits_facility",
    "id": 279
  },
  {
    "attributes": {
      "long": "-65.951181",
      "lat": "-44.829759",
      "services": null,
      "hours": {
        "sunday": "-",
        "saturday": "800AM-1000AM",
        "friday": "730AM-430PM",
        "thursday": "730AM-430PM",
        "wednesday": "730AM-430PM",
        "tuesday": "730AM-630PM",
        "monday": "730AM-430PM"
      },
      "phone": {
        "afterHours": "(935) 538-2420",
        "fax": "(950) 409-3589",
        "main": "(847) 519-2842"
      },
      "address": {
        "zip4": 8917,
        "zip": 8475,
        "state": "IN",
        "city": "Dragoon",
        "suite": null,
        "street": "104 Centre Street",
        "building": null
      },
      "classification": " VA Cemetery",
      "state": "IN",
      "city": "Dragoon",
      "name": "IN VA Cemetery-Dragoon",
      "visnId": 786
    },
    "state": "IN",
    "city": "Dragoon",
    "type": "va_cemetery",
    "id": 996
  },
  {
    "attributes": {
      "long": "-25.200368",
      "lat": "-67.467665",
      "services": [
        [
          "DentalServices",
          [

          ]
        ],
        [
          "EyeCare",
          [

          ]
        ],
        [
          "MentalHealthCare",
          [
            "OutpatientMHCare",
            "OutpatientSpecMHCare",
            "VocationalAssistance"
          ]
        ],
        [
          "PrimaryCare",
          [

          ]
        ]
      ],
      "hours": {
        "sunday": "-",
        "saturday": "800AM-1000AM",
        "friday": "730AM-430PM",
        "thursday": "730AM-430PM",
        "wednesday": "730AM-430PM",
        "tuesday": "730AM-630PM",
        "monday": "730AM-430PM"
      },
      "phone": {
        "afterHours": "(820) 529-3707",
        "fax": "(827) 498-2853",
        "main": "(846) 593-3797"
      },
      "address": {
        "zip4": 4481,
        "zip": 5164,
        "state": "WI",
        "city": "Enetai",
        "suite": null,
        "street": "800 Jefferson Avenue",
        "building": null
      },
      "classification": " VA Medical Center",
      "state": "WI",
      "city": "Enetai",
      "name": "WI VA Medical Center-Enetai",
      "visnId": 951
    },
    "state": "WI",
    "city": "Enetai",
    "type": "va_health_facility",
    "id": 758
  },
  {
    "attributes": {
      "long": "-22.288984",
      "lat": "30.77017",
      "services": null,
      "hours": {
        "sunday": "-",
        "saturday": "800AM-1000AM",
        "friday": "730AM-430PM",
        "thursday": "730AM-430PM",
        "wednesday": "730AM-430PM",
        "tuesday": "730AM-630PM",
        "monday": "730AM-430PM"
      },
      "phone": {
        "afterHours": "(917) 534-3969",
        "fax": "(868) 577-2702",
        "main": "(995) 410-2706"
      },
      "address": {
        "zip4": 2815,
        "zip": 5662,
        "state": "ID",
        "city": "Emory",
        "suite": null,
        "street": "607 Bergen Court",
        "building": null
      },
      "classification": " VA Cemetery",
      "state": "ID",
      "city": "Emory",
      "name": "ID VA Cemetery-Emory",
      "visnId": 829
    },
    "state": "ID",
    "city": "Emory",
    "type": "va_cemetery",
    "id": 361
  },
  {
    "attributes": {
      "long": "172.840155",
      "lat": "38.756302",
      "services": null,
      "hours": {
        "sunday": "-",
        "saturday": "800AM-1000AM",
        "friday": "730AM-430PM",
        "thursday": "730AM-430PM",
        "wednesday": "730AM-430PM",
        "tuesday": "730AM-630PM",
        "monday": "730AM-430PM"
      },
      "phone": {
        "afterHours": "(945) 494-3977",
        "fax": "(872) 526-3138",
        "main": "(959) 493-2522"
      },
      "address": {
        "zip4": 5262,
        "zip": 2771,
        "state": "MN",
        "city": "Fostoria",
        "suite": null,
        "street": "947 Williams Court",
        "building": null
      },
      "classification": " VA Cemetery",
      "state": "MN",
      "city": "Fostoria",
      "name": "MN VA Cemetery-Fostoria",
      "visnId": 492
    },
    "state": "MN",
    "city": "Fostoria",
    "type": "va_cemetery",
    "id": 297
  },
  {
    "attributes": {
      "long": "135.089654",
      "lat": "-9.699108",
      "services": null,
      "hours": {
        "sunday": "-",
        "saturday": "800AM-1000AM",
        "friday": "730AM-430PM",
        "thursday": "730AM-430PM",
        "wednesday": "730AM-430PM",
        "tuesday": "730AM-630PM",
        "monday": "730AM-430PM"
      },
      "phone": {
        "afterHours": "(875) 421-3299",
        "fax": "(831) 548-2715",
        "main": "(950) 592-2411"
      },
      "address": {
        "zip4": 1603,
        "zip": 3765,
        "state": "NH",
        "city": "Bath",
        "suite": null,
        "street": "489 Withers Street",
        "building": null
      },
      "classification": " VA Cemetery",
      "state": "NH",
      "city": "Bath",
      "name": "NH VA Cemetery-Bath",
      "visnId": 557
    },
    "state": "NH",
    "city": "Bath",
    "type": "va_cemetery",
    "id": 651
  },
  {
    "attributes": {
      "long": "172.683969",
      "lat": "-10.317832",
      "services": null,
      "hours": {
        "sunday": "-",
        "saturday": "800AM-1000AM",
        "friday": "730AM-430PM",
        "thursday": "730AM-430PM",
        "wednesday": "730AM-430PM",
        "tuesday": "730AM-630PM",
        "monday": "730AM-430PM"
      },
      "phone": {
        "afterHours": "(933) 500-2149",
        "fax": "(916) 459-3763",
        "main": "(964) 515-2779"
      },
      "address": {
        "zip4": 8343,
        "zip": 5016,
        "state": "MO",
        "city": "Cloverdale",
        "suite": null,
        "street": "605 Robert Street",
        "building": null
      },
      "classification": " VA Cemetery",
      "state": "MO",
      "city": "Cloverdale",
      "name": "MO VA Cemetery-Cloverdale",
      "visnId": 651
    },
    "state": "MO",
    "city": "Cloverdale",
    "type": "va_cemetery",
    "id": 514
  },
  {
    "attributes": {
      "long": "76.205552",
      "lat": "-40.662312",
      "services": [
        [
          "DentalServices",
          [

          ]
        ],
        [
          "EyeCare",
          [

          ]
        ],
        [
          "MentalHealthCare",
          [
            "OutpatientMHCare",
            "OutpatientSpecMHCare",
            "VocationalAssistance"
          ]
        ],
        [
          "PrimaryCare",
          [

          ]
        ]
      ],
      "hours": {
        "sunday": "-",
        "saturday": "800AM-1000AM",
        "friday": "730AM-430PM",
        "thursday": "730AM-430PM",
        "wednesday": "730AM-430PM",
        "tuesday": "730AM-630PM",
        "monday": "730AM-430PM"
      },
      "phone": {
        "afterHours": "(879) 482-3426",
        "fax": "(816) 509-2602",
        "main": "(969) 526-3151"
      },
      "address": {
        "zip4": 8833,
        "zip": 8450,
        "state": "NE",
        "city": "Richville",
        "suite": null,
        "street": "306 Borinquen Pl",
        "building": null
      },
      "classification": " VA Medical Center",
      "state": "NE",
      "city": "Richville",
      "name": "NE VA Medical Center-Richville",
      "visnId": 872
    },
    "state": "NE",
    "city": "Richville",
    "type": "va_health_facility",
    "id": 757
  },
  {
    "attributes": {
      "long": "41.749926",
      "lat": "-33.441949",
      "services": [
        [
          "DentalServices",
          [

          ]
        ],
        [
          "EyeCare",
          [

          ]
        ],
        [
          "MentalHealthCare",
          [
            "OutpatientMHCare",
            "OutpatientSpecMHCare",
            "VocationalAssistance"
          ]
        ],
        [
          "PrimaryCare",
          [

          ]
        ]
      ],
      "hours": {
        "sunday": "-",
        "saturday": "800AM-1000AM",
        "friday": "730AM-430PM",
        "thursday": "730AM-430PM",
        "wednesday": "730AM-430PM",
        "tuesday": "730AM-630PM",
        "monday": "730AM-430PM"
      },
      "phone": {
        "afterHours": "(827) 473-2539",
        "fax": "(935) 578-2703",
        "main": "(903) 449-3151"
      },
      "address": {
        "zip4": 3786,
        "zip": 3721,
        "state": "OR",
        "city": "Brecon",
        "suite": null,
        "street": "136 Kimball Street",
        "building": null
      },
      "classification": " VA Medical Center",
      "state": "OR",
      "city": "Brecon",
      "name": "OR VA Medical Center-Brecon",
      "visnId": 708
    },
    "state": "OR",
    "city": "Brecon",
    "type": "va_health_facility",
    "id": 478
  },
  {
    "attributes": {
      "long": "-8.828992",
      "lat": "-87.780527",
      "services": [
        [
          "DentalServices",
          [

          ]
        ],
        [
          "EyeCare",
          [

          ]
        ],
        [
          "MentalHealthCare",
          [
            "OutpatientMHCare",
            "OutpatientSpecMHCare",
            "VocationalAssistance"
          ]
        ],
        [
          "PrimaryCare",
          [

          ]
        ]
      ],
      "hours": {
        "sunday": "-",
        "saturday": "800AM-1000AM",
        "friday": "730AM-430PM",
        "thursday": "730AM-430PM",
        "wednesday": "730AM-430PM",
        "tuesday": "730AM-630PM",
        "monday": "730AM-430PM"
      },
      "phone": {
        "afterHours": "(844) 438-3333",
        "fax": "(844) 600-2338",
        "main": "(937) 549-2820"
      },
      "address": {
        "zip4": 7423,
        "zip": 7734,
        "state": "MI",
        "city": "Marienthal",
        "suite": null,
        "street": "851 Riverdale Avenue",
        "building": null
      },
      "classification": " VA Medical Center",
      "state": "MI",
      "city": "Marienthal",
      "name": "MI VA Medical Center-Marienthal",
      "visnId": 992
    },
    "state": "MI",
    "city": "Marienthal",
    "type": "va_health_facility",
    "id": 683
  },
  {
    "attributes": {
      "long": "-74.768622",
      "lat": "-62.701178",
      "services": null,
      "hours": {
        "sunday": "-",
        "saturday": "800AM-1000AM",
        "friday": "730AM-430PM",
        "thursday": "730AM-430PM",
        "wednesday": "730AM-430PM",
        "tuesday": "730AM-630PM",
        "monday": "730AM-430PM"
      },
      "phone": {
        "afterHours": "(962) 528-2445",
        "fax": "(887) 593-2769",
        "main": "(945) 572-2610"
      },
      "address": {
        "zip4": 4079,
        "zip": 8571,
        "state": "NV",
        "city": "Avoca",
        "suite": null,
        "street": "437 Etna Street",
        "building": null
      },
      "classification": " VA Benfits Office",
      "state": "NV",
      "city": "Avoca",
      "name": "NV VA Benfits Office-Avoca",
      "visnId": 955
    },
    "state": "NV",
    "city": "Avoca",
    "type": "va_benefits_facility",
    "id": 239
  },
  {
    "attributes": {
      "long": "-120.533207",
      "lat": "37.449218",
      "services": null,
      "hours": {
        "sunday": "-",
        "saturday": "800AM-1000AM",
        "friday": "730AM-430PM",
        "thursday": "730AM-430PM",
        "wednesday": "730AM-430PM",
        "tuesday": "730AM-630PM",
        "monday": "730AM-430PM"
      },
      "phone": {
        "afterHours": "(920) 546-3297",
        "fax": "(901) 440-3909",
        "main": "(910) 420-2434"
      },
      "address": {
        "zip4": 4385,
        "zip": 7706,
        "state": "AS",
        "city": "Brambleton",
        "suite": null,
        "street": "139 Dorchester Road",
        "building": null
      },
      "classification": " VA Benfits Office",
      "state": "AS",
      "city": "Brambleton",
      "name": "AS VA Benfits Office-Brambleton",
      "visnId": 257
    },
    "state": "AS",
    "city": "Brambleton",
    "type": "va_benefits_facility",
    "id": 272
  },
  {
    "attributes": {
      "long": "-156.119611",
      "lat": "-0.997973",
      "services": null,
      "hours": {
        "sunday": "-",
        "saturday": "800AM-1000AM",
        "friday": "730AM-430PM",
        "thursday": "730AM-430PM",
        "wednesday": "730AM-430PM",
        "tuesday": "730AM-630PM",
        "monday": "730AM-430PM"
      },
      "phone": {
        "afterHours": "(801) 449-2417",
        "fax": "(975) 487-3931",
        "main": "(862) 427-3261"
      },
      "address": {
        "zip4": 4822,
        "zip": 6685,
        "state": "WY",
        "city": "Saticoy",
        "suite": null,
        "street": "493 Georgia Avenue",
        "building": null
      },
      "classification": " VA Benfits Office",
      "state": "WY",
      "city": "Saticoy",
      "name": "WY VA Benfits Office-Saticoy",
      "visnId": 726
    },
    "state": "WY",
    "city": "Saticoy",
    "type": "va_benefits_facility",
    "id": 519
  },
  {
    "attributes": {
      "long": "91.218425",
      "lat": "39.168035",
      "services": [
        [
          "DentalServices",
          [

          ]
        ],
        [
          "EyeCare",
          [

          ]
        ],
        [
          "MentalHealthCare",
          [
            "OutpatientMHCare",
            "OutpatientSpecMHCare",
            "VocationalAssistance"
          ]
        ],
        [
          "PrimaryCare",
          [

          ]
        ]
      ],
      "hours": {
        "sunday": "-",
        "saturday": "800AM-1000AM",
        "friday": "730AM-430PM",
        "thursday": "730AM-430PM",
        "wednesday": "730AM-430PM",
        "tuesday": "730AM-630PM",
        "monday": "730AM-430PM"
      },
      "phone": {
        "afterHours": "(874) 562-3616",
        "fax": "(892) 531-3070",
        "main": "(873) 484-2702"
      },
      "address": {
        "zip4": 6939,
        "zip": 5629,
        "state": "WV",
        "city": "Lindisfarne",
        "suite": null,
        "street": "577 Herzl Street",
        "building": null
      },
      "classification": " VA Medical Center",
      "state": "WV",
      "city": "Lindisfarne",
      "name": "WV VA Medical Center-Lindisfarne",
      "visnId": 227
    },
    "state": "WV",
    "city": "Lindisfarne",
    "type": "va_health_facility",
    "id": 266
  },
  {
    "attributes": {
      "long": "-121.115464",
      "lat": "50.332268",
      "services": null,
      "hours": {
        "sunday": "-",
        "saturday": "800AM-1000AM",
        "friday": "730AM-430PM",
        "thursday": "730AM-430PM",
        "wednesday": "730AM-430PM",
        "tuesday": "730AM-630PM",
        "monday": "730AM-430PM"
      },
      "phone": {
        "afterHours": "(936) 560-3553",
        "fax": "(959) 530-2789",
        "main": "(938) 543-2815"
      },
      "address": {
        "zip4": 5376,
        "zip": 5438,
        "state": "CA",
        "city": "Felt",
        "suite": null,
        "street": "871 Vista Place",
        "building": null
      },
      "classification": " VA Benfits Office",
      "state": "CA",
      "city": "Felt",
      "name": "CA VA Benfits Office-Felt",
      "visnId": 178
    },
    "state": "CA",
    "city": "Felt",
    "type": "va_benefits_facility",
    "id": 613
  },
  {
    "attributes": {
      "long": "-21.331969",
      "lat": "54.827421",
      "services": null,
      "hours": {
        "sunday": "-",
        "saturday": "800AM-1000AM",
        "friday": "730AM-430PM",
        "thursday": "730AM-430PM",
        "wednesday": "730AM-430PM",
        "tuesday": "730AM-630PM",
        "monday": "730AM-430PM"
      },
      "phone": {
        "afterHours": "(842) 454-2423",
        "fax": "(898) 401-3807",
        "main": "(877) 407-2604"
      },
      "address": {
        "zip4": 6797,
        "zip": 6125,
        "state": "IL",
        "city": "Allensworth",
        "suite": null,
        "street": "531 Hillel Place",
        "building": null
      },
      "classification": " VA Benfits Office",
      "state": "IL",
      "city": "Allensworth",
      "name": "IL VA Benfits Office-Allensworth",
      "visnId": 910
    },
    "state": "IL",
    "city": "Allensworth",
    "type": "va_benefits_facility",
    "id": 937
  },
  {
    "attributes": {
      "long": "122.706735",
      "lat": "70.925192",
      "services": null,
      "hours": {
        "sunday": "-",
        "saturday": "800AM-1000AM",
        "friday": "730AM-430PM",
        "thursday": "730AM-430PM",
        "wednesday": "730AM-430PM",
        "tuesday": "730AM-630PM",
        "monday": "730AM-430PM"
      },
      "phone": {
        "afterHours": "(814) 480-3955",
        "fax": "(805) 472-3773",
        "main": "(962) 481-2879"
      },
      "address": {
        "zip4": 2285,
        "zip": 3429,
        "state": "NM",
        "city": "Farmers",
        "suite": null,
        "street": "246 Elton Street",
        "building": null
      },
      "classification": " VA Cemetery",
      "state": "NM",
      "city": "Farmers",
      "name": "NM VA Cemetery-Farmers",
      "visnId": 158
    },
    "state": "NM",
    "city": "Farmers",
    "type": "va_cemetery",
    "id": 795
  },
  {
    "attributes": {
      "long": "89.671615",
      "lat": "74.068376",
      "services": null,
      "hours": {
        "sunday": "-",
        "saturday": "800AM-1000AM",
        "friday": "730AM-430PM",
        "thursday": "730AM-430PM",
        "wednesday": "730AM-430PM",
        "tuesday": "730AM-630PM",
        "monday": "730AM-430PM"
      },
      "phone": {
        "afterHours": "(948) 581-3480",
        "fax": "(899) 401-3357",
        "main": "(989) 493-2208"
      },
      "address": {
        "zip4": 8756,
        "zip": 5889,
        "state": "VA",
        "city": "Yonah",
        "suite": null,
        "street": "112 Junius Street",
        "building": null
      },
      "classification": " VA Cemetery",
      "state": "VA",
      "city": "Yonah",
      "name": "VA VA Cemetery-Yonah",
      "visnId": 242
    },
    "state": "VA",
    "city": "Yonah",
    "type": "va_cemetery",
    "id": 204
  },
  {
    "attributes": {
      "long": "-150.825519",
      "lat": "30.780024",
      "services": null,
      "hours": {
        "sunday": "-",
        "saturday": "800AM-1000AM",
        "friday": "730AM-430PM",
        "thursday": "730AM-430PM",
        "wednesday": "730AM-430PM",
        "tuesday": "730AM-630PM",
        "monday": "730AM-430PM"
      },
      "phone": {
        "afterHours": "(903) 551-2581",
        "fax": "(998) 557-2456",
        "main": "(948) 416-3842"
      },
      "address": {
        "zip4": 1781,
        "zip": 9757,
        "state": "FM",
        "city": "Helen",
        "suite": null,
        "street": "660 Amherst Street",
        "building": null
      },
      "classification": " VA Cemetery",
      "state": "FM",
      "city": "Helen",
      "name": "FM VA Cemetery-Helen",
      "visnId": 186
    },
    "state": "FM",
    "city": "Helen",
    "type": "va_cemetery",
    "id": 347
  },
  {
    "attributes": {
      "long": "139.067708",
      "lat": "47.365585",
      "services": null,
      "hours": {
        "sunday": "-",
        "saturday": "800AM-1000AM",
        "friday": "730AM-430PM",
        "thursday": "730AM-430PM",
        "wednesday": "730AM-430PM",
        "tuesday": "730AM-630PM",
        "monday": "730AM-430PM"
      },
      "phone": {
        "afterHours": "(974) 420-2494",
        "fax": "(992) 569-3656",
        "main": "(960) 420-3035"
      },
      "address": {
        "zip4": 8051,
        "zip": 2684,
        "state": "DE",
        "city": "Watchtower",
        "suite": null,
        "street": "444 Metropolitan Avenue",
        "building": null
      },
      "classification": " VA Cemetery",
      "state": "DE",
      "city": "Watchtower",
      "name": "DE VA Cemetery-Watchtower",
      "visnId": 275
    },
    "state": "DE",
    "city": "Watchtower",
    "type": "va_cemetery",
    "id": 118
  },
  {
    "attributes": {
      "long": "109.933759",
      "lat": "74.216482",
      "services": null,
      "hours": {
        "sunday": "-",
        "saturday": "800AM-1000AM",
        "friday": "730AM-430PM",
        "thursday": "730AM-430PM",
        "wednesday": "730AM-430PM",
        "tuesday": "730AM-630PM",
        "monday": "730AM-430PM"
      },
      "phone": {
        "afterHours": "(812) 540-3478",
        "fax": "(838) 524-3783",
        "main": "(898) 473-3481"
      },
      "address": {
        "zip4": 1753,
        "zip": 5829,
        "state": "WA",
        "city": "Barstow",
        "suite": null,
        "street": "390 Dank Court",
        "building": null
      },
      "classification": " VA Cemetery",
      "state": "WA",
      "city": "Barstow",
      "name": "WA VA Cemetery-Barstow",
      "visnId": 279
    },
    "state": "WA",
    "city": "Barstow",
    "type": "va_cemetery",
    "id": 475
  },
  {
    "attributes": {
      "long": "11.665553",
      "lat": "30.822504",
      "services": [
        [
          "DentalServices",
          [

          ]
        ],
        [
          "EyeCare",
          [

          ]
        ],
        [
          "MentalHealthCare",
          [
            "OutpatientMHCare",
            "OutpatientSpecMHCare",
            "VocationalAssistance"
          ]
        ],
        [
          "PrimaryCare",
          [

          ]
        ]
      ],
      "hours": {
        "sunday": "-",
        "saturday": "800AM-1000AM",
        "friday": "730AM-430PM",
        "thursday": "730AM-430PM",
        "wednesday": "730AM-430PM",
        "tuesday": "730AM-630PM",
        "monday": "730AM-430PM"
      },
      "phone": {
        "afterHours": "(964) 410-2510",
        "fax": "(905) 487-3356",
        "main": "(876) 600-3761"
      },
      "address": {
        "zip4": 8640,
        "zip": 7166,
        "state": "MA",
        "city": "Albany",
        "suite": null,
        "street": "610 Gelston Avenue",
        "building": null
      },
      "classification": " VA Medical Center",
      "state": "MA",
      "city": "Albany",
      "name": "MA VA Medical Center-Albany",
      "visnId": 734
    },
    "state": "MA",
    "city": "Albany",
    "type": "va_health_facility",
    "id": 619
  },
  {
    "attributes": {
      "long": "60.14748",
      "lat": "-41.38886",
      "services": null,
      "hours": {
        "sunday": "-",
        "saturday": "800AM-1000AM",
        "friday": "730AM-430PM",
        "thursday": "730AM-430PM",
        "wednesday": "730AM-430PM",
        "tuesday": "730AM-630PM",
        "monday": "730AM-430PM"
      },
      "phone": {
        "afterHours": "(957) 505-2305",
        "fax": "(842) 477-3159",
        "main": "(887) 445-3162"
      },
      "address": {
        "zip4": 8150,
        "zip": 1098,
        "state": "AZ",
        "city": "Cliffside",
        "suite": null,
        "street": "925 Driggs Avenue",
        "building": null
      },
      "classification": " VA Benfits Office",
      "state": "AZ",
      "city": "Cliffside",
      "name": "AZ VA Benfits Office-Cliffside",
      "visnId": 646
    },
    "state": "AZ",
    "city": "Cliffside",
    "type": "va_benefits_facility",
    "id": 667
  },
  {
    "attributes": {
      "long": "40.569802",
      "lat": "-60.097522",
      "services": null,
      "hours": {
        "sunday": "-",
        "saturday": "800AM-1000AM",
        "friday": "730AM-430PM",
        "thursday": "730AM-430PM",
        "wednesday": "730AM-430PM",
        "tuesday": "730AM-630PM",
        "monday": "730AM-430PM"
      },
      "phone": {
        "afterHours": "(877) 598-2411",
        "fax": "(824) 571-2206",
        "main": "(855) 474-2193"
      },
      "address": {
        "zip4": 4139,
        "zip": 6099,
        "state": "PW",
        "city": "Bakersville",
        "suite": null,
        "street": "439 Herkimer Street",
        "building": null
      },
      "classification": " VA Cemetery",
      "state": "PW",
      "city": "Bakersville",
      "name": "PW VA Cemetery-Bakersville",
      "visnId": 509
    },
    "state": "PW",
    "city": "Bakersville",
    "type": "va_cemetery",
    "id": 475
  },
  {
    "attributes": {
      "long": "-27.656693",
      "lat": "-38.143782",
      "services": null,
      "hours": {
        "sunday": "-",
        "saturday": "800AM-1000AM",
        "friday": "730AM-430PM",
        "thursday": "730AM-430PM",
        "wednesday": "730AM-430PM",
        "tuesday": "730AM-630PM",
        "monday": "730AM-430PM"
      },
      "phone": {
        "afterHours": "(956) 536-3642",
        "fax": "(841) 557-2386",
        "main": "(956) 483-3640"
      },
      "address": {
        "zip4": 3550,
        "zip": 2173,
        "state": "ME",
        "city": "Winston",
        "suite": null,
        "street": "782 Tapscott Street",
        "building": null
      },
      "classification": " VA Cemetery",
      "state": "ME",
      "city": "Winston",
      "name": "ME VA Cemetery-Winston",
      "visnId": 993
    },
    "state": "ME",
    "city": "Winston",
    "type": "va_cemetery",
    "id": 694
  },
  {
    "attributes": {
      "long": "53.061719",
      "lat": "-16.41025",
      "services": null,
      "hours": {
        "sunday": "-",
        "saturday": "800AM-1000AM",
        "friday": "730AM-430PM",
        "thursday": "730AM-430PM",
        "wednesday": "730AM-430PM",
        "tuesday": "730AM-630PM",
        "monday": "730AM-430PM"
      },
      "phone": {
        "afterHours": "(973) 426-2860",
        "fax": "(802) 599-2931",
        "main": "(825) 425-3045"
      },
      "address": {
        "zip4": 1902,
        "zip": 2919,
        "state": "DC",
        "city": "Alafaya",
        "suite": null,
        "street": "973 Grant Avenue",
        "building": null
      },
      "classification": " VA Cemetery",
      "state": "DC",
      "city": "Alafaya",
      "name": "DC VA Cemetery-Alafaya",
      "visnId": 835
    },
    "state": "DC",
    "city": "Alafaya",
    "type": "va_cemetery",
    "id": 732
  },
  {
    "attributes": {
      "long": "-172.901832",
      "lat": "38.530234",
      "services": null,
      "hours": {
        "sunday": "-",
        "saturday": "800AM-1000AM",
        "friday": "730AM-430PM",
        "thursday": "730AM-430PM",
        "wednesday": "730AM-430PM",
        "tuesday": "730AM-630PM",
        "monday": "730AM-430PM"
      },
      "phone": {
        "afterHours": "(890) 515-3282",
        "fax": "(829) 437-3503",
        "main": "(865) 451-2894"
      },
      "address": {
        "zip4": 6843,
        "zip": 9345,
        "state": "OH",
        "city": "Kidder",
        "suite": null,
        "street": "468 Whitney Avenue",
        "building": null
      },
      "classification": " VA Cemetery",
      "state": "OH",
      "city": "Kidder",
      "name": "OH VA Cemetery-Kidder",
      "visnId": 307
    },
    "state": "OH",
    "city": "Kidder",
    "type": "va_cemetery",
    "id": 796
  },
  {
    "attributes": {
      "long": "85.386193",
      "lat": "-46.966072",
      "services": [
        [
          "DentalServices",
          [

          ]
        ],
        [
          "EyeCare",
          [

          ]
        ],
        [
          "MentalHealthCare",
          [
            "OutpatientMHCare",
            "OutpatientSpecMHCare",
            "VocationalAssistance"
          ]
        ],
        [
          "PrimaryCare",
          [

          ]
        ]
      ],
      "hours": {
        "sunday": "-",
        "saturday": "800AM-1000AM",
        "friday": "730AM-430PM",
        "thursday": "730AM-430PM",
        "wednesday": "730AM-430PM",
        "tuesday": "730AM-630PM",
        "monday": "730AM-430PM"
      },
      "phone": {
        "afterHours": "(884) 552-2897",
        "fax": "(846) 489-2477",
        "main": "(825) 452-3692"
      },
      "address": {
        "zip4": 5587,
        "zip": 7661,
        "state": "TN",
        "city": "Unionville",
        "suite": null,
        "street": "290 Calyer Street",
        "building": null
      },
      "classification": " VA Medical Center",
      "state": "TN",
      "city": "Unionville",
      "name": "TN VA Medical Center-Unionville",
      "visnId": 195
    },
    "state": "TN",
    "city": "Unionville",
    "type": "va_health_facility",
    "id": 495
  },
  {
    "attributes": {
      "long": "132.193497",
      "lat": "25.752502",
      "services": [
        [
          "DentalServices",
          [

          ]
        ],
        [
          "EyeCare",
          [

          ]
        ],
        [
          "MentalHealthCare",
          [
            "OutpatientMHCare",
            "OutpatientSpecMHCare",
            "VocationalAssistance"
          ]
        ],
        [
          "PrimaryCare",
          [

          ]
        ]
      ],
      "hours": {
        "sunday": "-",
        "saturday": "800AM-1000AM",
        "friday": "730AM-430PM",
        "thursday": "730AM-430PM",
        "wednesday": "730AM-430PM",
        "tuesday": "730AM-630PM",
        "monday": "730AM-430PM"
      },
      "phone": {
        "afterHours": "(857) 465-2823",
        "fax": "(874) 570-3483",
        "main": "(971) 555-2445"
      },
      "address": {
        "zip4": 7612,
        "zip": 7473,
        "state": "PR",
        "city": "Fidelis",
        "suite": null,
        "street": "170 Main Street",
        "building": null
      },
      "classification": " VA Medical Center",
      "state": "PR",
      "city": "Fidelis",
      "name": "PR VA Medical Center-Fidelis",
      "visnId": 711
    },
    "state": "PR",
    "city": "Fidelis",
    "type": "va_health_facility",
    "id": 644
  },
  {
    "attributes": {
      "long": "-14.49057",
      "lat": "-75.98767",
      "services": null,
      "hours": {
        "sunday": "-",
        "saturday": "800AM-1000AM",
        "friday": "730AM-430PM",
        "thursday": "730AM-430PM",
        "wednesday": "730AM-430PM",
        "tuesday": "730AM-630PM",
        "monday": "730AM-430PM"
      },
      "phone": {
        "afterHours": "(875) 599-3286",
        "fax": "(844) 457-2474",
        "main": "(853) 591-3339"
      },
      "address": {
        "zip4": 8341,
        "zip": 1954,
        "state": "UT",
        "city": "Hanover",
        "suite": null,
        "street": "396 Turner Place",
        "building": null
      },
      "classification": " VA Cemetery",
      "state": "UT",
      "city": "Hanover",
      "name": "UT VA Cemetery-Hanover",
      "visnId": 598
    },
    "state": "UT",
    "city": "Hanover",
    "type": "va_cemetery",
    "id": 617
  },
  {
    "attributes": {
      "long": "-52.237756",
      "lat": "63.524967",
      "services": null,
      "hours": {
        "sunday": "-",
        "saturday": "800AM-1000AM",
        "friday": "730AM-430PM",
        "thursday": "730AM-430PM",
        "wednesday": "730AM-430PM",
        "tuesday": "730AM-630PM",
        "monday": "730AM-430PM"
      },
      "phone": {
        "afterHours": "(899) 427-3556",
        "fax": "(915) 418-3619",
        "main": "(910) 407-2986"
      },
      "address": {
        "zip4": 1319,
        "zip": 2142,
        "state": "GA",
        "city": "Sussex",
        "suite": null,
        "street": "300 Ashland Place",
        "building": null
      },
      "classification": " VA Benfits Office",
      "state": "GA",
      "city": "Sussex",
      "name": "GA VA Benfits Office-Sussex",
      "visnId": 441
    },
    "state": "GA",
    "city": "Sussex",
    "type": "va_benefits_facility",
    "id": 985
  },
  {
    "attributes": {
      "long": "-77.704074",
      "lat": "-0.712608",
      "services": [
        [
          "DentalServices",
          [

          ]
        ],
        [
          "EyeCare",
          [

          ]
        ],
        [
          "MentalHealthCare",
          [
            "OutpatientMHCare",
            "OutpatientSpecMHCare",
            "VocationalAssistance"
          ]
        ],
        [
          "PrimaryCare",
          [

          ]
        ]
      ],
      "hours": {
        "sunday": "-",
        "saturday": "800AM-1000AM",
        "friday": "730AM-430PM",
        "thursday": "730AM-430PM",
        "wednesday": "730AM-430PM",
        "tuesday": "730AM-630PM",
        "monday": "730AM-430PM"
      },
      "phone": {
        "afterHours": "(853) 520-3997",
        "fax": "(897) 480-3066",
        "main": "(807) 535-3510"
      },
      "address": {
        "zip4": 2733,
        "zip": 5363,
        "state": "IA",
        "city": "Whipholt",
        "suite": null,
        "street": "572 Bristol Street",
        "building": null
      },
      "classification": " VA Medical Center",
      "state": "IA",
      "city": "Whipholt",
      "name": "IA VA Medical Center-Whipholt",
      "visnId": 292
    },
    "state": "IA",
    "city": "Whipholt",
    "type": "va_health_facility",
    "id": 210
  },
  {
    "attributes": {
      "long": "75.25499",
      "lat": "-48.906662",
      "services": null,
      "hours": {
        "sunday": "-",
        "saturday": "800AM-1000AM",
        "friday": "730AM-430PM",
        "thursday": "730AM-430PM",
        "wednesday": "730AM-430PM",
        "tuesday": "730AM-630PM",
        "monday": "730AM-430PM"
      },
      "phone": {
        "afterHours": "(871) 466-3617",
        "fax": "(838) 460-2346",
        "main": "(862) 420-2392"
      },
      "address": {
        "zip4": 6531,
        "zip": 3633,
        "state": "AL",
        "city": "Yettem",
        "suite": null,
        "street": "359 Harrison Place",
        "building": null
      },
      "classification": " VA Cemetery",
      "state": "AL",
      "city": "Yettem",
      "name": "AL VA Cemetery-Yettem",
      "visnId": 667
    },
    "state": "AL",
    "city": "Yettem",
    "type": "va_cemetery",
    "id": 456
  }
]
